[
	{
		"id" : 1,
		"station_name" : "546160",
		"name" : "Cangzhou",
		"administrative_region1" : "Hebei",
		"administrative_region2" : "N/A",
		"country_code" : "CN",
		"longitude" : 116.867,
		"latitude" : 38.3167
	},
	{
		"id" : 2,
		"station_name" : "176010",
		"name" : "Kolossi",
		"administrative_region1" : "Larnaka",
		"administrative_region2" : "N/A",
		"country_code" : "CY",
		"longitude" : 32.9338,
		"latitude" : 34.6687
	},
	{
		"id" : 3,
		"station_name" : "70400",
		"name" : "Dieppe",
		"administrative_region1" : "Haute-Normandie",
		"administrative_region2" : "Departement de la Seine-Maritime",
		"country_code" : "FR",
		"longitude" : 1.08333,
		"latitude" : 49.9333
	},
	{
		"id" : 4,
		"station_name" : "105100",
		"name" : "Nurburg",
		"administrative_region1" : "Rheinland-Pfalz",
		"administrative_region2" : "N/A",
		"country_code" : "DE",
		"longitude" : 6.95,
		"latitude" : 50.3333
	},
	{
		"id" : 5,
		"station_name" : "176000",
		"name" : "Paphos",
		"administrative_region1" : "Pafos",
		"administrative_region2" : "N/A",
		"country_code" : "CY",
		"longitude" : 32.4245,
		"latitude" : 34.7768
	},
	{
		"id" : 6,
		"station_name" : "295240",
		"name" : "Ubinskoye",
		"administrative_region1" : "Novosibirsk",
		"administrative_region2" : "N/A",
		"country_code" : "RU",
		"longitude" : 79.6802,
		"latitude" : 55.3068
	},
	{
		"id" : 7,
		"station_name" : "719595",
		"name" : "Inuvik",
		"administrative_region1" : "Northwest Territories",
		"administrative_region2" : "N/A",
		"country_code" : "CA",
		"longitude" : -133.722,
		"latitude" : 68.3499
	},
	{
		"id" : 8,
		"station_name" : "35220",
		"name" : "Credenhill",
		"administrative_region1" : "England",
		"administrative_region2" : "Herefordshire",
		"country_code" : "GB",
		"longitude" : -2.80804,
		"latitude" : 52.0835
	},
	{
		"id" : 9,
		"station_name" : "719590",
		"name" : "Inuvik",
		"administrative_region1" : "Northwest Territories",
		"administrative_region2" : "N/A",
		"country_code" : "CA",
		"longitude" : -133.722,
		"latitude" : 68.3499
	},
	{
		"id" : 10,
		"station_name" : "719580",
		"name" : "Watson Lake",
		"administrative_region1" : "Yukon",
		"administrative_region2" : "N/A",
		"country_code" : "CA",
		"longitude" : -128.709,
		"latitude" : 60.0635
	},
	{
		"id" : 11,
		"station_name" : "105130",
		"name" : "Rosrath",
		"administrative_region1" : "North Rhine-Westphalia",
		"administrative_region2" : "Regierungsbezirk Koln",
		"country_code" : "DE",
		"longitude" : 7.18175,
		"latitude" : 50.8956
	},
	{
		"id" : 12,
		"station_name" : "719570",
		"name" : "Inuvik",
		"administrative_region1" : "Northwest Territories",
		"administrative_region2" : "N/A",
		"country_code" : "CA",
		"longitude" : -133.722,
		"latitude" : 68.3499
	},
	{
		"id" : 13,
		"station_name" : "840710",
		"name" : "Quito",
		"administrative_region1" : "Pichincha",
		"administrative_region2" : "N/A",
		"country_code" : "EC",
		"longitude" : -78.5249,
		"latitude" : -0.22985
	},
	{
		"id" : 14,
		"station_name" : "382640",
		"name" : "Nukus",
		"administrative_region1" : "Karakalpakstan",
		"administrative_region2" : "N/A",
		"country_code" : "UZ",
		"longitude" : 59.6103,
		"latitude" : 42.4531
	},
	{
		"id" : 15,
		"station_name" : "854595",
		"name" : "Copiapo",
		"administrative_region1" : "Atacama",
		"administrative_region2" : "Provincia de Copiapo",
		"country_code" : "CL",
		"longitude" : -70.3314,
		"latitude" : -27.3668
	},
	{
		"id" : 16,
		"station_name" : "176060",
		"name" : "Kolossi",
		"administrative_region1" : "Larnaka",
		"administrative_region2" : "N/A",
		"country_code" : "CY",
		"longitude" : 32.9338,
		"latitude" : 34.6687
	},
	{
		"id" : 17,
		"station_name" : "105140",
		"name" : "Kruft",
		"administrative_region1" : "Rheinland-Pfalz",
		"administrative_region2" : "N/A",
		"country_code" : "DE",
		"longitude" : 7.33333,
		"latitude" : 50.3833
	},
	{
		"id" : 18,
		"station_name" : "105150",
		"name" : "Bendorf",
		"administrative_region1" : "Rheinland-Pfalz",
		"administrative_region2" : "N/A",
		"country_code" : "DE",
		"longitude" : 7.57924,
		"latitude" : 50.4229
	},
	{
		"id" : 19,
		"station_name" : "70460",
		"name" : "Sainte-Adresse",
		"administrative_region1" : "Haute-Normandie",
		"administrative_region2" : "Departement de la Seine-Maritime",
		"country_code" : "FR",
		"longitude" : 0.08446,
		"latitude" : 49.5089
	},
	{
		"id" : 20,
		"station_name" : "156400",
		"name" : "Sliven",
		"administrative_region1" : "Sliven",
		"administrative_region2" : "Obshtina Sliven",
		"country_code" : "BG",
		"longitude" : 26.3292,
		"latitude" : 42.6858
	},
	{
		"id" : 21,
		"station_name" : "176074",
		"name" : "Geri",
		"administrative_region1" : "Lefkosia",
		"administrative_region2" : "N/A",
		"country_code" : "CY",
		"longitude" : 33.4198,
		"latitude" : 35.1056
	},
	{
		"id" : 22,
		"station_name" : "872170",
		"name" : "La Rioja",
		"administrative_region1" : "La Rioja",
		"administrative_region2" : "N/A",
		"country_code" : "AR",
		"longitude" : -66.8507,
		"latitude" : -29.4111
	},
	{
		"id" : 23,
		"station_name" : "35270",
		"name" : "Great Malvern",
		"administrative_region1" : "England",
		"administrative_region2" : "Worcestershire",
		"country_code" : "GB",
		"longitude" : -2.32515,
		"latitude" : 52.1116
	},
	{
		"id" : 24,
		"station_name" : "122370",
		"name" : "Bydgoszcz",
		"administrative_region1" : "Kujawsko-Pomorskie",
		"administrative_region2" : "Bydgoszcz",
		"country_code" : "PL",
		"longitude" : 18.0076,
		"latitude" : 53.1235
	},
	{
		"id" : 25,
		"station_name" : "435990",
		"name" : "Hithadhoo",
		"administrative_region1" : "South Province",
		"administrative_region2" : "N/A",
		"country_code" : "MV",
		"longitude" : 73.0833,
		"latitude" : -0.6
	},
	{
		"id" : 26,
		"station_name" : "780730",
		"name" : "Nassau",
		"administrative_region1" : "New Providence",
		"administrative_region2" : "N/A",
		"country_code" : "BS",
		"longitude" : -77.3431,
		"latitude" : 25.0582
	},
	{
		"id" : 27,
		"station_name" : "590580",
		"name" : "Mengshan",
		"administrative_region1" : "Guangxi Zhuangzu Zizhiqu",
		"administrative_region2" : "N/A",
		"country_code" : "CN",
		"longitude" : 110.518,
		"latitude" : 24.2141
	},
	{
		"id" : 28,
		"station_name" : "122380",
		"name" : "Bydgoszcz",
		"administrative_region1" : "Kujawsko-Pomorskie",
		"administrative_region2" : "Bydgoszcz",
		"country_code" : "PL",
		"longitude" : 18.0076,
		"latitude" : 53.1235
	},
	{
		"id" : 29,
		"station_name" : "719540",
		"name" : "Inuvik",
		"administrative_region1" : "Northwest Territories",
		"administrative_region2" : "N/A",
		"country_code" : "CA",
		"longitude" : -133.722,
		"latitude" : 68.3499
	},
	{
		"id" : 30,
		"station_name" : "176090",
		"name" : "Larnaca",
		"administrative_region1" : "Larnaka",
		"administrative_region2" : "N/A",
		"country_code" : "CY",
		"longitude" : 33.6233,
		"latitude" : 34.9229
	},
	{
		"id" : 31,
		"station_name" : "719530",
		"name" : "Watson Lake",
		"administrative_region1" : "Yukon",
		"administrative_region2" : "N/A",
		"country_code" : "CA",
		"longitude" : -128.709,
		"latitude" : 60.0635
	},
	{
		"id" : 32,
		"station_name" : "854590",
		"name" : "Osorno",
		"administrative_region1" : "Los Lagos",
		"administrative_region2" : "Provincia de Osorno",
		"country_code" : "CL",
		"longitude" : -73.1335,
		"latitude" : -40.574
	},
	{
		"id" : 33,
		"station_name" : "35280",
		"name" : "Pershore",
		"administrative_region1" : "England",
		"administrative_region2" : "Worcestershire",
		"country_code" : "GB",
		"longitude" : -2.07586,
		"latitude" : 52.1116
	},
	{
		"id" : 34,
		"station_name" : "105190",
		"name" : "Sankt Augustin",
		"administrative_region1" : "North Rhine-Westphalia",
		"administrative_region2" : "N/A",
		"country_code" : "DE",
		"longitude" : 7.197,
		"latitude" : 50.7754
	},
	{
		"id" : 35,
		"station_name" : "281720",
		"name" : "Uvat",
		"administrative_region1" : "Tjumen",
		"administrative_region2" : "N/A",
		"country_code" : "RU",
		"longitude" : 68.8888,
		"latitude" : 59.1423
	},
	{
		"id" : 36,
		"station_name" : "35310",
		"name" : "Hockley",
		"administrative_region1" : "England",
		"administrative_region2" : "City and Borough of Birmingham",
		"country_code" : "GB",
		"longitude" : -1.91667,
		"latitude" : 52.5
	},
	{
		"id" : 37,
		"station_name" : "719510",
		"name" : "Terrace",
		"administrative_region1" : "British Columbia",
		"administrative_region2" : "N/A",
		"country_code" : "CA",
		"longitude" : -128.603,
		"latitude" : 54.5163
	},
	{
		"id" : 38,
		"station_name" : "156350",
		"name" : "Chirpan",
		"administrative_region1" : "Stara Zagora",
		"administrative_region2" : "Obshtina Chirpan",
		"country_code" : "BG",
		"longitude" : 25.3333,
		"latitude" : 42.2
	},
	{
		"id" : 39,
		"station_name" : "719500",
		"name" : "Smithers",
		"administrative_region1" : "British Columbia",
		"administrative_region2" : "N/A",
		"country_code" : "CA",
		"longitude" : -127.174,
		"latitude" : 54.7804
	},
	{
		"id" : 40,
		"station_name" : "607750",
		"name" : "Remada",
		"administrative_region1" : "Tataouine",
		"administrative_region2" : "N/A",
		"country_code" : "TN",
		"longitude" : 10.3955,
		"latitude" : 32.3166
	},
	{
		"id" : 41,
		"station_name" : "765255",
		"name" : "Victor Rosales",
		"administrative_region1" : "Zacatecas",
		"administrative_region2" : "Calera",
		"country_code" : "MX",
		"longitude" : -102.702,
		"latitude" : 22.9489
	},
	{
		"id" : 42,
		"station_name" : "719491",
		"name" : "Whitecourt",
		"administrative_region1" : "Alberta",
		"administrative_region2" : "N/A",
		"country_code" : "CA",
		"longitude" : -115.685,
		"latitude" : 54.1502
	},
	{
		"id" : 43,
		"station_name" : "104960",
		"name" : "Cottbus",
		"administrative_region1" : "Brandenburg",
		"administrative_region2" : "N/A",
		"country_code" : "DE",
		"longitude" : 14.3289,
		"latitude" : 51.7577
	},
	{
		"id" : 44,
		"station_name" : "295390",
		"name" : "Bolotnoye",
		"administrative_region1" : "Novosibirsk",
		"administrative_region2" : "N/A",
		"country_code" : "RU",
		"longitude" : 84.3981,
		"latitude" : 55.6717
	},
	{
		"id" : 45,
		"station_name" : "719480",
		"name" : "Norman Wells",
		"administrative_region1" : "Northwest Territories",
		"administrative_region2" : "N/A",
		"country_code" : "CA",
		"longitude" : -126.833,
		"latitude" : 65.282
	},
	{
		"id" : 46,
		"station_name" : "334660",
		"name" : "Myronivka",
		"administrative_region1" : "Kiev",
		"administrative_region2" : "N/A",
		"country_code" : "UA",
		"longitude" : 30.9823,
		"latitude" : 49.6601
	},
	{
		"id" : 47,
		"station_name" : "719460",
		"name" : "Fort Nelson",
		"administrative_region1" : "British Columbia",
		"administrative_region2" : "N/A",
		"country_code" : "CA",
		"longitude" : -122.7,
		"latitude" : 58.8053
	},
	{
		"id" : 48,
		"station_name" : "104990",
		"name" : "Goerlitz",
		"administrative_region1" : "Saxony",
		"administrative_region2" : "N/A",
		"country_code" : "DE",
		"longitude" : 14.9885,
		"latitude" : 51.1552
	},
	{
		"id" : 49,
		"station_name" : "745700",
		"name" : "Wright-Patterson AFB",
		"administrative_region1" : "Ohio",
		"administrative_region2" : "Greene County",
		"country_code" : "US",
		"longitude" : -84.0573,
		"latitude" : 39.8111
	},
	{
		"id" : 50,
		"station_name" : "70550",
		"name" : "Tille",
		"administrative_region1" : "Picardie",
		"administrative_region2" : "Departement de l'Oise",
		"country_code" : "FR",
		"longitude" : 2.11038,
		"latitude" : 49.4641
	},
	{
		"id" : 51,
		"station_name" : "964210",
		"name" : "Sibu",
		"administrative_region1" : "Sarawak",
		"administrative_region2" : "N/A",
		"country_code" : "MY",
		"longitude" : 111.817,
		"latitude" : 2.3
	},
	{
		"id" : 52,
		"station_name" : "225630",
		"name" : "Pinega",
		"administrative_region1" : "Arkhangelskaya",
		"administrative_region2" : "N/A",
		"country_code" : "RU",
		"longitude" : 43.3902,
		"latitude" : 64.6997
	},
	{
		"id" : 53,
		"station_name" : "156250",
		"name" : "Plovdiv",
		"administrative_region1" : "Plovdiv",
		"administrative_region2" : "Obshtina Plovdiv",
		"country_code" : "BG",
		"longitude" : 24.75,
		"latitude" : 42.15
	},
	{
		"id" : 54,
		"station_name" : "244770",
		"name" : "Khandyga",
		"administrative_region1" : "Sakha",
		"administrative_region2" : "N/A",
		"country_code" : "RU",
		"longitude" : 135.567,
		"latitude" : 62.6533
	},
	{
		"id" : 55,
		"station_name" : "295410",
		"name" : "Tayga",
		"administrative_region1" : "Kemerovo",
		"administrative_region2" : "N/A",
		"country_code" : "RU",
		"longitude" : 85.6224,
		"latitude" : 56.064
	},
	{
		"id" : 56,
		"station_name" : "719440",
		"name" : "Prince George",
		"administrative_region1" : "British Columbia",
		"administrative_region2" : "N/A",
		"country_code" : "CA",
		"longitude" : -122.753,
		"latitude" : 53.9166
	},
	{
		"id" : 57,
		"station_name" : "105000",
		"name" : "Gangelt",
		"administrative_region1" : "North Rhine-Westphalia",
		"administrative_region2" : "Regierungsbezirk Koln",
		"country_code" : "DE",
		"longitude" : 5.99802,
		"latitude" : 50.9925
	},
	{
		"id" : 58,
		"station_name" : "312630",
		"name" : "Tokur",
		"administrative_region1" : "Amur",
		"administrative_region2" : "N/A",
		"country_code" : "RU",
		"longitude" : 132.89,
		"latitude" : 53.1353
	},
	{
		"id" : 59,
		"station_name" : "70570",
		"name" : "Verneuil-en-Halatte",
		"administrative_region1" : "Picardie",
		"administrative_region2" : "Departement de l'Oise",
		"country_code" : "FR",
		"longitude" : 2.5241,
		"latitude" : 49.2791
	},
	{
		"id" : 60,
		"station_name" : "156270",
		"name" : "Karlovo",
		"administrative_region1" : "Plovdiv",
		"administrative_region2" : "Obshtina Karlovo",
		"country_code" : "BG",
		"longitude" : 24.8,
		"latitude" : 42.6333
	},
	{
		"id" : 61,
		"station_name" : "489910",
		"name" : "Phnom Penh",
		"administrative_region1" : "Phnom Penh",
		"administrative_region2" : "N/A",
		"country_code" : "KH",
		"longitude" : 104.916,
		"latitude" : 11.5625
	},
	{
		"id" : 62,
		"station_name" : "35110",
		"name" : "Mainstone",
		"administrative_region1" : "England",
		"administrative_region2" : "Shropshire",
		"country_code" : "GB",
		"longitude" : -3.08333,
		"latitude" : 52.4833
	},
	{
		"id" : 63,
		"station_name" : "528660",
		"name" : "Xining",
		"administrative_region1" : "Qinghai Sheng",
		"administrative_region2" : "N/A",
		"country_code" : "CN",
		"longitude" : 101.757,
		"latitude" : 36.6255
	},
	{
		"id" : 64,
		"station_name" : "719450",
		"name" : "Fort Nelson",
		"administrative_region1" : "British Columbia",
		"administrative_region2" : "N/A",
		"country_code" : "CA",
		"longitude" : -122.7,
		"latitude" : 58.8053
	},
	{
		"id" : 65,
		"station_name" : "719430",
		"name" : "Fort St. John",
		"administrative_region1" : "British Columbia",
		"administrative_region2" : "N/A",
		"country_code" : "CA",
		"longitude" : -120.853,
		"latitude" : 56.2499
	},
	{
		"id" : 66,
		"station_name" : "105020",
		"name" : "Norvenich",
		"administrative_region1" : "North Rhine-Westphalia",
		"administrative_region2" : "Regierungsbezirk Koln",
		"country_code" : "DE",
		"longitude" : 6.65,
		"latitude" : 50.8
	},
	{
		"id" : 67,
		"station_name" : "295400",
		"name" : "Anzhero-Sudzhensk",
		"administrative_region1" : "Kemerovo",
		"administrative_region2" : "N/A",
		"country_code" : "RU",
		"longitude" : 86.0285,
		"latitude" : 56.081
	},
	{
		"id" : 68,
		"station_name" : "704140",
		"name" : "Dutch Harbor",
		"administrative_region1" : "Alaska",
		"administrative_region2" : "Aleutians West Census Area",
		"country_code" : "US",
		"longitude" : -166.542,
		"latitude" : 53.8898
	},
	{
		"id" : 69,
		"station_name" : "105010",
		"name" : "Aachen",
		"administrative_region1" : "North Rhine-Westphalia",
		"administrative_region2" : "Regierungsbezirk Koln",
		"country_code" : "DE",
		"longitude" : 6.08342,
		"latitude" : 50.7766
	},
	{
		"id" : 70,
		"station_name" : "780620",
		"name" : "Freeport",
		"administrative_region1" : "Freeport",
		"administrative_region2" : "N/A",
		"country_code" : "BS",
		"longitude" : -78.7,
		"latitude" : 26.5333
	},
	{
		"id" : 71,
		"station_name" : "352170",
		"name" : "Dzhambeyty",
		"administrative_region1" : "Batys Qazaqstan",
		"administrative_region2" : "N/A",
		"country_code" : "KZ",
		"longitude" : 52.5989,
		"latitude" : 50.2568
	},
	{
		"id" : 72,
		"station_name" : "854690",
		"name" : "Hanga Roa",
		"administrative_region1" : "Valparaiso",
		"administrative_region2" : "N/A",
		"country_code" : "CL",
		"longitude" : -109.432,
		"latitude" : -27.1547
	},
	{
		"id" : 73,
		"station_name" : "949100",
		"name" : "Forest Hill",
		"administrative_region1" : "New South Wales",
		"administrative_region2" : "Wagga Wagga",
		"country_code" : "AU",
		"longitude" : 147.467,
		"latitude" : -35.1481
	},
	{
		"id" : 74,
		"station_name" : "590460",
		"name" : "Liuzhou",
		"administrative_region1" : "Guangxi Zhuangzu Zizhiqu",
		"administrative_region2" : "N/A",
		"country_code" : "CN",
		"longitude" : 109.389,
		"latitude" : 24.3126
	},
	{
		"id" : 75,
		"station_name" : "964130",
		"name" : "Kuching",
		"administrative_region1" : "Sarawak",
		"administrative_region2" : "N/A",
		"country_code" : "MY",
		"longitude" : 110.333,
		"latitude" : 1.55
	},
	{
		"id" : 76,
		"station_name" : "264220",
		"name" : "Riga",
		"administrative_region1" : "Riga",
		"administrative_region2" : "N/A",
		"country_code" : "LV",
		"longitude" : 24.1059,
		"latitude" : 56.946
	},
	{
		"id" : 77,
		"station_name" : "122500",
		"name" : "Torun",
		"administrative_region1" : "Kujawsko-Pomorskie",
		"administrative_region2" : "Torun",
		"country_code" : "PL",
		"longitude" : 18.5981,
		"latitude" : 53.0137
	},
	{
		"id" : 78,
		"station_name" : "295320",
		"name" : "Kozhevnikovo",
		"administrative_region1" : "Tomsk",
		"administrative_region2" : "N/A",
		"country_code" : "RU",
		"longitude" : 83.9714,
		"latitude" : 56.2589
	},
	{
		"id" : 79,
		"station_name" : "854700",
		"name" : "Copiapo",
		"administrative_region1" : "Atacama",
		"administrative_region2" : "Provincia de Copiapo",
		"country_code" : "CL",
		"longitude" : -70.3314,
		"latitude" : -27.3668
	},
	{
		"id" : 80,
		"station_name" : "70610",
		"name" : "Etreillers",
		"administrative_region1" : "Picardie",
		"administrative_region2" : "Departement de l'Aisne",
		"country_code" : "FR",
		"longitude" : 3.16029,
		"latitude" : 49.8306
	},
	{
		"id" : 81,
		"station_name" : "719403",
		"name" : "Chetwynd",
		"administrative_region1" : "British Columbia",
		"administrative_region2" : "N/A",
		"country_code" : "CA",
		"longitude" : -121.636,
		"latitude" : 55.6999
	},
	{
		"id" : 82,
		"station_name" : "719400",
		"name" : "Grande Prairie",
		"administrative_region1" : "Alberta",
		"administrative_region2" : "N/A",
		"country_code" : "CA",
		"longitude" : -118.803,
		"latitude" : 55.1667
	},
	{
		"id" : 83,
		"station_name" : "949070",
		"name" : "Sale",
		"administrative_region1" : "Victoria",
		"administrative_region2" : "Wellington",
		"country_code" : "AU",
		"longitude" : 147.068,
		"latitude" : -38.111
	},
	{
		"id" : 84,
		"station_name" : "719380",
		"name" : "Kugluktuk",
		"administrative_region1" : "Nunavut",
		"administrative_region2" : "N/A",
		"country_code" : "CA",
		"longitude" : -115.096,
		"latitude" : 67.8274
	},
	{
		"id" : 85,
		"station_name" : "105060",
		"name" : "Wirft",
		"administrative_region1" : "Rheinland-Pfalz",
		"administrative_region2" : "N/A",
		"country_code" : "DE",
		"longitude" : 6.86667,
		"latitude" : 50.3667
	},
	{
		"id" : 86,
		"station_name" : "719390",
		"name" : "Oussivo",
		"administrative_region1" : "Grande Comore",
		"administrative_region2" : "N/A",
		"country_code" : "KM",
		"longitude" : 43.2672,
		"latitude" : -11.585
	},
	{
		"id" : 87,
		"station_name" : "719360",
		"name" : "Yellowknife",
		"administrative_region1" : "Northwest Territories",
		"administrative_region2" : "N/A",
		"country_code" : "CA",
		"longitude" : -114.353,
		"latitude" : 62.456
	},
	{
		"id" : 88,
		"station_name" : "474410",
		"name" : "Makubetsu",
		"administrative_region1" : "Hokkaido",
		"administrative_region2" : "N/A",
		"country_code" : "JP",
		"longitude" : 141.821,
		"latitude" : 45.3714
	},
	{
		"id" : 89,
		"station_name" : "264225",
		"name" : "Pinki",
		"administrative_region1" : "Babite",
		"administrative_region2" : "N/A",
		"country_code" : "LV",
		"longitude" : 23.9108,
		"latitude" : 56.9419
	},
	{
		"id" : 90,
		"station_name" : "141050",
		"name" : "Piran",
		"administrative_region1" : "Piran-Pirano",
		"administrative_region2" : "N/A",
		"country_code" : "SI",
		"longitude" : 13.5706,
		"latitude" : 45.5278
	},
	{
		"id" : 91,
		"station_name" : "295340",
		"name" : "Kolyvan'",
		"administrative_region1" : "Novosibirsk",
		"administrative_region2" : "N/A",
		"country_code" : "RU",
		"longitude" : 82.7391,
		"latitude" : 55.3053
	},
	{
		"id" : 92,
		"station_name" : "765390",
		"name" : "San Luis Potosi",
		"administrative_region1" : "San Luis Potosi",
		"administrative_region2" : "San Luis Potosi",
		"country_code" : "MX",
		"longitude" : -100.979,
		"latitude" : 22.1498
	},
	{
		"id" : 93,
		"station_name" : "546180",
		"name" : "Botou",
		"administrative_region1" : "Hebei",
		"administrative_region2" : "N/A",
		"country_code" : "CN",
		"longitude" : 116.567,
		"latitude" : 38.0667
	},
	{
		"id" : 94,
		"station_name" : "474400",
		"name" : "Obihiro",
		"administrative_region1" : "Hokkaido",
		"administrative_region2" : "N/A",
		"country_code" : "JP",
		"longitude" : 143.204,
		"latitude" : 42.9172
	},
	{
		"id" : 95,
		"station_name" : "823320",
		"name" : "Manaus",
		"administrative_region1" : "Amazonas",
		"administrative_region2" : "Manaus",
		"country_code" : "BR",
		"longitude" : -60.025,
		"latitude" : -3.10194
	},
	{
		"id" : 96,
		"station_name" : "34960",
		"name" : "Hemsby",
		"administrative_region1" : "England",
		"administrative_region2" : "Norfolk",
		"country_code" : "GB",
		"longitude" : 1.69181,
		"latitude" : 52.6971
	},
	{
		"id" : 97,
		"station_name" : "225500",
		"name" : "Arkhangel'sk",
		"administrative_region1" : "Arkhangelskaya",
		"administrative_region2" : "N/A",
		"country_code" : "RU",
		"longitude" : 40.5433,
		"latitude" : 64.5401
	},
	{
		"id" : 98,
		"station_name" : "105360",
		"name" : "Fulda",
		"administrative_region1" : "Hesse",
		"administrative_region2" : "Regierungsbezirk Kassel",
		"country_code" : "DE",
		"longitude" : 9.67518,
		"latitude" : 50.5516
	},
	{
		"id" : 99,
		"station_name" : "489480",
		"name" : "Wan Yai",
		"administrative_region1" : "Mukdahan",
		"administrative_region2" : "N/A",
		"country_code" : "TH",
		"longitude" : 104.741,
		"latitude" : 16.7223
	},
	{
		"id" : 100,
		"station_name" : "34970",
		"name" : "Gorleston-on-Sea",
		"administrative_region1" : "England",
		"administrative_region2" : "Norfolk",
		"country_code" : "GB",
		"longitude" : 1.73069,
		"latitude" : 52.573
	},
	{
		"id" : 101,
		"station_name" : "841010",
		"name" : "Bahia de Caraquez",
		"administrative_region1" : "Manabi",
		"administrative_region2" : "N/A",
		"country_code" : "EC",
		"longitude" : -80.4237,
		"latitude" : -0.59792
	},
	{
		"id" : 102,
		"station_name" : "70170",
		"name" : "Raillencourt-Sainte-Olle",
		"administrative_region1" : "Nord-Pas-de-Calais",
		"administrative_region2" : "Departement du Nord",
		"country_code" : "FR",
		"longitude" : 3.16667,
		"latitude" : 50.1833
	},
	{
		"id" : 103,
		"station_name" : "70150",
		"name" : "Vendeville",
		"administrative_region1" : "Nord-Pas-de-Calais",
		"administrative_region2" : "Departement du Nord",
		"country_code" : "FR",
		"longitude" : 3.0787,
		"latitude" : 50.5769
	},
	{
		"id" : 104,
		"station_name" : "528560",
		"name" : "Tumba",
		"administrative_region1" : "Qinghai Sheng",
		"administrative_region2" : "N/A",
		"country_code" : "CN",
		"longitude" : 100.77,
		"latitude" : 36.3796
	},
	{
		"id" : 105,
		"station_name" : "764990",
		"name" : "Soto la Marina",
		"administrative_region1" : "Tamaulipas",
		"administrative_region2" : "N/A",
		"country_code" : "MX",
		"longitude" : -98.2044,
		"latitude" : 23.7695
	},
	{
		"id" : 106,
		"station_name" : "34950",
		"name" : "Coltishall",
		"administrative_region1" : "England",
		"administrative_region2" : "Norfolk",
		"country_code" : "GB",
		"longitude" : 1.36653,
		"latitude" : 52.728
	},
	{
		"id" : 107,
		"station_name" : "948910",
		"name" : "Morwell",
		"administrative_region1" : "Victoria",
		"administrative_region2" : "Latrobe",
		"country_code" : "AU",
		"longitude" : 146.395,
		"latitude" : -38.2348
	},
	{
		"id" : 108,
		"station_name" : "474330",
		"name" : "Niseko Town",
		"administrative_region1" : "Hokkaido",
		"administrative_region2" : "N/A",
		"country_code" : "JP",
		"longitude" : 140.669,
		"latitude" : 42.7787
	},
	{
		"id" : 109,
		"station_name" : "122700",
		"name" : "Wisniewo",
		"administrative_region1" : "Masovian Voivodeship",
		"administrative_region2" : "Powiat mlawski",
		"country_code" : "PL",
		"longitude" : 20.348,
		"latitude" : 53.0647
	},
	{
		"id" : 110,
		"station_name" : "854880",
		"name" : "La Serena",
		"administrative_region1" : "Coquimbo",
		"administrative_region2" : "Provincia de Elqui",
		"country_code" : "CL",
		"longitude" : -71.2489,
		"latitude" : -29.9045
	},
	{
		"id" : 111,
		"station_name" : "156610",
		"name" : "Tsarevo",
		"administrative_region1" : "Burgas",
		"administrative_region2" : "Obshtina Tsarevo",
		"country_code" : "BG",
		"longitude" : 27.8454,
		"latitude" : 42.1696
	},
	{
		"id" : 112,
		"station_name" : "474340",
		"name" : "Chitose",
		"administrative_region1" : "Hokkaido",
		"administrative_region2" : "N/A",
		"country_code" : "JP",
		"longitude" : 141.652,
		"latitude" : 42.8194
	},
	{
		"id" : 113,
		"station_name" : "590720",
		"name" : "Lianzhou",
		"administrative_region1" : "Guangdong",
		"administrative_region2" : "N/A",
		"country_code" : "CN",
		"longitude" : 112.371,
		"latitude" : 24.7819
	},
	{
		"id" : 114,
		"station_name" : "474350",
		"name" : "Mombetsu",
		"administrative_region1" : "Hokkaido",
		"administrative_region2" : "N/A",
		"country_code" : "JP",
		"longitude" : 143.352,
		"latitude" : 44.3525
	},
	{
		"id" : 115,
		"station_name" : "545870",
		"name" : "Dachang Shandao",
		"administrative_region1" : "Liaoning",
		"administrative_region2" : "N/A",
		"country_code" : "CN",
		"longitude" : 122.6,
		"latitude" : 39.2756
	},
	{
		"id" : 116,
		"station_name" : "684610",
		"name" : "Bethlehem",
		"administrative_region1" : "Orange Free State",
		"administrative_region2" : "Thabo Mofutsanyana District Municipality",
		"country_code" : "ZA",
		"longitude" : 28.3071,
		"latitude" : -28.2308
	},
	{
		"id" : 117,
		"station_name" : "70200",
		"name" : "Beaumont-Hague",
		"administrative_region1" : "Lower Normandy",
		"administrative_region2" : "Departement de la Manche",
		"country_code" : "FR",
		"longitude" : -1.83822,
		"latitude" : 49.6639
	},
	{
		"id" : 118,
		"station_name" : "854860",
		"name" : "Vallenar",
		"administrative_region1" : "Atacama",
		"administrative_region2" : "Provincia de Huasco",
		"country_code" : "CL",
		"longitude" : -70.7594,
		"latitude" : -28.5762
	},
	{
		"id" : 119,
		"station_name" : "122720",
		"name" : "Kortowo",
		"administrative_region1" : "Warmian-Masurian Voivodeship",
		"administrative_region2" : "Olsztyn",
		"country_code" : "PL",
		"longitude" : 20.4562,
		"latitude" : 53.7573
	},
	{
		"id" : 120,
		"station_name" : "260450",
		"name" : "Kunda",
		"administrative_region1" : "Laeaene-Virumaa",
		"administrative_region2" : "Viru-Nigula vald",
		"country_code" : "EE",
		"longitude" : 26.5333,
		"latitude" : 59.4833
	},
	{
		"id" : 121,
		"station_name" : "872440",
		"name" : "Villa de Maria",
		"administrative_region1" : "Cordoba",
		"administrative_region2" : "N/A",
		"country_code" : "AR",
		"longitude" : -63.7229,
		"latitude" : -29.902
	},
	{
		"id" : 122,
		"station_name" : "260380",
		"name" : "Viimsi",
		"administrative_region1" : "Harju",
		"administrative_region2" : "Viimsi vald",
		"country_code" : "EE",
		"longitude" : 24.8422,
		"latitude" : 59.4967
	},
	{
		"id" : 123,
		"station_name" : "474240",
		"name" : "Tomakomai",
		"administrative_region1" : "Hokkaido",
		"administrative_region2" : "N/A",
		"country_code" : "JP",
		"longitude" : 141.603,
		"latitude" : 42.6369
	},
	{
		"id" : 124,
		"station_name" : "590820",
		"name" : "Shaoguan",
		"administrative_region1" : "Guangdong",
		"administrative_region2" : "N/A",
		"country_code" : "CN",
		"longitude" : 113.583,
		"latitude" : 24.8
	},
	{
		"id" : 125,
		"station_name" : "489550",
		"name" : "Pakxe",
		"administrative_region1" : "Champasak",
		"administrative_region2" : "N/A",
		"country_code" : "LA",
		"longitude" : 105.799,
		"latitude" : 15.1202
	},
	{
		"id" : 126,
		"station_name" : "474250",
		"name" : "Chitose",
		"administrative_region1" : "Hokkaido",
		"administrative_region2" : "N/A",
		"country_code" : "JP",
		"longitude" : 141.652,
		"latitude" : 42.8194
	},
	{
		"id" : 127,
		"station_name" : "474260",
		"name" : "Shizunai-furukawacho",
		"administrative_region1" : "Hokkaido",
		"administrative_region2" : "N/A",
		"country_code" : "JP",
		"longitude" : 142.367,
		"latitude" : 42.3339
	},
	{
		"id" : 128,
		"station_name" : "545840",
		"name" : "Diego de Almagro",
		"administrative_region1" : "Atacama",
		"administrative_region2" : "Provincia de Chanaral",
		"country_code" : "CL",
		"longitude" : -70.05,
		"latitude" : -26.3667
	},
	{
		"id" : 129,
		"station_name" : "563570",
		"name" : "Sangpi",
		"administrative_region1" : "Sichuan",
		"administrative_region2" : "N/A",
		"country_code" : "CN",
		"longitude" : 99.7999,
		"latitude" : 28.9339
	},
	{
		"id" : 130,
		"station_name" : "35020",
		"name" : "Aberporth",
		"administrative_region1" : "Wales",
		"administrative_region2" : "County of Ceredigion",
		"country_code" : "GB",
		"longitude" : -4.54173,
		"latitude" : 52.1325
	},
	{
		"id" : 131,
		"station_name" : "156550",
		"name" : "Burgas",
		"administrative_region1" : "Burgas",
		"administrative_region2" : "Obshtina Burgas",
		"country_code" : "BG",
		"longitude" : 27.4678,
		"latitude" : 42.5061
	},
	{
		"id" : 132,
		"station_name" : "312530",
		"name" : "Zeya",
		"administrative_region1" : "Amur",
		"administrative_region2" : "N/A",
		"country_code" : "RU",
		"longitude" : 127.257,
		"latitude" : 53.736
	},
	{
		"id" : 133,
		"station_name" : "105420",
		"name" : "Bad Hersfeld",
		"administrative_region1" : "Hesse",
		"administrative_region2" : "Regierungsbezirk Kassel",
		"country_code" : "DE",
		"longitude" : 9.70891,
		"latitude" : 50.872
	},
	{
		"id" : 134,
		"station_name" : "105460",
		"name" : "Kaltennordheim",
		"administrative_region1" : "Thuringia",
		"administrative_region2" : "N/A",
		"country_code" : "DE",
		"longitude" : 10.1592,
		"latitude" : 50.6265
	},
	{
		"id" : 135,
		"station_name" : "420710",
		"name" : "Amritsar",
		"administrative_region1" : "Punjab",
		"administrative_region2" : "Amritsar",
		"country_code" : "IN",
		"longitude" : 74.8748,
		"latitude" : 31.6366
	},
	{
		"id" : 136,
		"station_name" : "70270",
		"name" : "Carpiquet",
		"administrative_region1" : "Lower Normandy",
		"administrative_region2" : "Departement du Calvados",
		"country_code" : "FR",
		"longitude" : -0.44623,
		"latitude" : 49.1852
	},
	{
		"id" : 137,
		"station_name" : "365350",
		"name" : "Kokpekty",
		"administrative_region1" : "",
		"administrative_region2" : "N/A",
		"country_code" : "KZ",
		"longitude" : 82.4,
		"latitude" : 48.75
	},
	{
		"id" : 138,
		"station_name" : "474280",
		"name" : "Kamiiso",
		"administrative_region1" : "Hokkaido",
		"administrative_region2" : "N/A",
		"country_code" : "JP",
		"longitude" : 140.645,
		"latitude" : 41.8201
	},
	{
		"id" : 139,
		"station_name" : "105440",
		"name" : "Gersfeld",
		"administrative_region1" : "Hesse",
		"administrative_region2" : "Regierungsbezirk Kassel",
		"country_code" : "DE",
		"longitude" : 9.91422,
		"latitude" : 50.4514
	},
	{
		"id" : 140,
		"station_name" : "70240",
		"name" : "Fermanville",
		"administrative_region1" : "Lower Normandy",
		"administrative_region2" : "Departement de la Manche",
		"country_code" : "FR",
		"longitude" : -1.46284,
		"latitude" : 49.6867
	},
	{
		"id" : 141,
		"station_name" : "948930",
		"name" : "Morwell",
		"administrative_region1" : "Victoria",
		"administrative_region2" : "Latrobe",
		"country_code" : "AU",
		"longitude" : 146.395,
		"latitude" : -38.2348
	},
	{
		"id" : 142,
		"station_name" : "312570",
		"name" : "Zeya",
		"administrative_region1" : "Amur",
		"administrative_region2" : "N/A",
		"country_code" : "RU",
		"longitude" : 127.257,
		"latitude" : 53.736
	},
	{
		"id" : 143,
		"station_name" : "964490",
		"name" : "Miri",
		"administrative_region1" : "Sarawak",
		"administrative_region2" : "N/A",
		"country_code" : "MY",
		"longitude" : 114.009,
		"latitude" : 4.4148
	},
	{
		"id" : 144,
		"station_name" : "581020",
		"name" : "Bozhou",
		"administrative_region1" : "Anhui Sheng",
		"administrative_region2" : "N/A",
		"country_code" : "CN",
		"longitude" : 115.77,
		"latitude" : 33.8772
	},
	{
		"id" : 145,
		"station_name" : "474300",
		"name" : "Hakodate",
		"administrative_region1" : "Hokkaido",
		"administrative_region2" : "N/A",
		"country_code" : "JP",
		"longitude" : 140.737,
		"latitude" : 41.7758
	},
	{
		"id" : 146,
		"station_name" : "474180",
		"name" : "Kushiro",
		"administrative_region1" : "Hokkaido",
		"administrative_region2" : "N/A",
		"country_code" : "JP",
		"longitude" : 144.375,
		"latitude" : 42.975
	},
	{
		"id" : 147,
		"station_name" : "351880",
		"name" : "Astana",
		"administrative_region1" : "Astana Qalasy",
		"administrative_region2" : "N/A",
		"country_code" : "KZ",
		"longitude" : 71.446,
		"latitude" : 51.1801
	},
	{
		"id" : 148,
		"station_name" : "528420",
		"name" : "Chaka",
		"administrative_region1" : "Qinghai Sheng",
		"administrative_region2" : "N/A",
		"country_code" : "CN",
		"longitude" : 99.0737,
		"latitude" : 36.7922
	},
	{
		"id" : 149,
		"station_name" : "70290",
		"name" : "Port-en-Bessin-Huppain",
		"administrative_region1" : "Lower Normandy",
		"administrative_region2" : "Departement du Calvados",
		"country_code" : "FR",
		"longitude" : -0.75557,
		"latitude" : 49.3446
	},
	{
		"id" : 150,
		"station_name" : "745966",
		"name" : "Erma",
		"administrative_region1" : "New Jersey",
		"administrative_region2" : "Cape May County",
		"country_code" : "US",
		"longitude" : -74.908,
		"latitude" : 38.9807
	},
	{
		"id" : 151,
		"station_name" : "546020",
		"name" : "Baoding",
		"administrative_region1" : "Hebei",
		"administrative_region2" : "N/A",
		"country_code" : "CN",
		"longitude" : 115.49,
		"latitude" : 38.8511
	},
	{
		"id" : 152,
		"station_name" : "474200",
		"name" : "Nemuro",
		"administrative_region1" : "Hokkaido",
		"administrative_region2" : "N/A",
		"country_code" : "JP",
		"longitude" : 145.575,
		"latitude" : 43.3236
	},
	{
		"id" : 153,
		"station_name" : "70280",
		"name" : "Sainte-Adresse",
		"administrative_region1" : "Haute-Normandie",
		"administrative_region2" : "Departement de la Seine-Maritime",
		"country_code" : "FR",
		"longitude" : 0.08446,
		"latitude" : 49.5089
	},
	{
		"id" : 154,
		"station_name" : "810020",
		"name" : "Vreed-en-Hoop",
		"administrative_region1" : "Essequibo Islands-West Demerara",
		"administrative_region2" : "N/A",
		"country_code" : "GY",
		"longitude" : -58.198,
		"latitude" : 6.80927
	},
	{
		"id" : 155,
		"station_name" : "34820",
		"name" : "Swaffham",
		"administrative_region1" : "England",
		"administrative_region2" : "Norfolk",
		"country_code" : "GB",
		"longitude" : 0.68871,
		"latitude" : 52.6469
	},
	{
		"id" : 156,
		"station_name" : "745980",
		"name" : "Poquoson",
		"administrative_region1" : "Virginia",
		"administrative_region2" : "City of Poquoson",
		"country_code" : "US",
		"longitude" : -76.3458,
		"latitude" : 37.1224
	},
	{
		"id" : 157,
		"station_name" : "312350",
		"name" : "Chumikan",
		"administrative_region1" : "Khabarovsk Krai",
		"administrative_region2" : "N/A",
		"country_code" : "RU",
		"longitude" : 135.316,
		"latitude" : 54.7186
	},
	{
		"id" : 158,
		"station_name" : "351910",
		"name" : "Yereymentau",
		"administrative_region1" : "Aqmola",
		"administrative_region2" : "N/A",
		"country_code" : "KZ",
		"longitude" : 73.1108,
		"latitude" : 51.621
	},
	{
		"id" : 159,
		"station_name" : "34873",
		"name" : "Fakenham",
		"administrative_region1" : "England",
		"administrative_region2" : "Norfolk",
		"country_code" : "GB",
		"longitude" : 0.8477,
		"latitude" : 52.83
	},
	{
		"id" : 160,
		"station_name" : "841110",
		"name" : "Portoviejo",
		"administrative_region1" : "Manabi",
		"administrative_region2" : "N/A",
		"country_code" : "EC",
		"longitude" : -80.4545,
		"latitude" : -1.05458
	},
	{
		"id" : 161,
		"station_name" : "474210",
		"name" : "Iwanai",
		"administrative_region1" : "Hokkaido",
		"administrative_region2" : "N/A",
		"country_code" : "JP",
		"longitude" : 140.509,
		"latitude" : 42.9744
	},
	{
		"id" : 162,
		"station_name" : "841115",
		"name" : "Portoviejo",
		"administrative_region1" : "Manabi",
		"administrative_region2" : "N/A",
		"country_code" : "EC",
		"longitude" : -80.4545,
		"latitude" : -1.05458
	},
	{
		"id" : 163,
		"station_name" : "810010",
		"name" : "Georgetown",
		"administrative_region1" : "Demerara-Mahaica",
		"administrative_region2" : "N/A",
		"country_code" : "GY",
		"longitude" : -58.1553,
		"latitude" : 6.80448
	},
	{
		"id" : 164,
		"station_name" : "872220",
		"name" : "San Fernando del Valle de Catamarca",
		"administrative_region1" : "Catamarca",
		"administrative_region2" : "N/A",
		"country_code" : "AR",
		"longitude" : -65.7852,
		"latitude" : -28.4696
	},
	{
		"id" : 165,
		"station_name" : "719690",
		"name" : "Dawson City",
		"administrative_region1" : "Yukon",
		"administrative_region2" : "N/A",
		"country_code" : "CA",
		"longitude" : -139.433,
		"latitude" : 64.0601
	},
	{
		"id" : 166,
		"station_name" : "105260",
		"name" : "Lautzenbrucken",
		"administrative_region1" : "Rheinland-Pfalz",
		"administrative_region2" : "N/A",
		"country_code" : "DE",
		"longitude" : 7.96667,
		"latitude" : 50.6833
	},
	{
		"id" : 167,
		"station_name" : "260580",
		"name" : "Narva",
		"administrative_region1" : "Ida-Virumaa",
		"administrative_region2" : "Narva linn",
		"country_code" : "EE",
		"longitude" : 28.1903,
		"latitude" : 59.3772
	},
	{
		"id" : 168,
		"station_name" : "489660",
		"name" : "Siem Reap",
		"administrative_region1" : "Siem Reap",
		"administrative_region2" : "N/A",
		"country_code" : "KH",
		"longitude" : 103.861,
		"latitude" : 13.3618
	},
	{
		"id" : 169,
		"station_name" : "745940",
		"name" : "Andrews AFB",
		"administrative_region1" : "Maryland",
		"administrative_region2" : "Prince George's County",
		"country_code" : "US",
		"longitude" : -76.8746,
		"latitude" : 38.8053
	},
	{
		"id" : 170,
		"station_name" : "745946",
		"name" : "West Ocean City",
		"administrative_region1" : "Maryland",
		"administrative_region2" : "Worcester County",
		"country_code" : "US",
		"longitude" : -75.1068,
		"latitude" : 38.3315
	},
	{
		"id" : 171,
		"station_name" : "70310",
		"name" : "Saint-Gatien-des-Bois",
		"administrative_region1" : "Lower Normandy",
		"administrative_region2" : "Departement du Calvados",
		"country_code" : "FR",
		"longitude" : 0.18333,
		"latitude" : 49.35
	},
	{
		"id" : 172,
		"station_name" : "474230",
		"name" : "Muroran",
		"administrative_region1" : "Hokkaido",
		"administrative_region2" : "N/A",
		"country_code" : "JP",
		"longitude" : 140.988,
		"latitude" : 42.3172
	},
	{
		"id" : 173,
		"station_name" : "260590",
		"name" : "Kingisepp",
		"administrative_region1" : "Leningrad",
		"administrative_region2" : "N/A",
		"country_code" : "RU",
		"longitude" : 28.6134,
		"latitude" : 59.3733
	},
	{
		"id" : 174,
		"station_name" : "122850",
		"name" : "Ostroleka",
		"administrative_region1" : "Masovian Voivodeship",
		"administrative_region2" : "Ostroleka",
		"country_code" : "PL",
		"longitude" : 21.5757,
		"latitude" : 53.0862
	},
	{
		"id" : 175,
		"station_name" : "964410",
		"name" : "Bintulu",
		"administrative_region1" : "Sarawak",
		"administrative_region2" : "N/A",
		"country_code" : "MY",
		"longitude" : 113.033,
		"latitude" : 3.16667
	},
	{
		"id" : 176,
		"station_name" : "474120",
		"name" : "Sapporo",
		"administrative_region1" : "Hokkaido",
		"administrative_region2" : "N/A",
		"country_code" : "JP",
		"longitude" : 141.347,
		"latitude" : 43.0642
	},
	{
		"id" : 177,
		"station_name" : "264460",
		"name" : "Rezekne",
		"administrative_region1" : "Rezekne",
		"administrative_region2" : "N/A",
		"country_code" : "LV",
		"longitude" : 27.3167,
		"latitude" : 56.5
	},
	{
		"id" : 178,
		"station_name" : "719660",
		"name" : "Dawson City",
		"administrative_region1" : "Yukon",
		"administrative_region2" : "N/A",
		"country_code" : "CA",
		"longitude" : -139.433,
		"latitude" : 64.0601
	},
	{
		"id" : 179,
		"station_name" : "948840",
		"name" : "Benalla",
		"administrative_region1" : "Victoria",
		"administrative_region2" : "Benalla",
		"country_code" : "AU",
		"longitude" : 145.984,
		"latitude" : -36.5511
	},
	{
		"id" : 180,
		"station_name" : "719670",
		"name" : "Haines Junction",
		"administrative_region1" : "Yukon",
		"administrative_region2" : "N/A",
		"country_code" : "CA",
		"longitude" : -137.511,
		"latitude" : 60.7522
	},
	{
		"id" : 181,
		"station_name" : "245070",
		"name" : "Tura",
		"administrative_region1" : "Krasnoyarskiy",
		"administrative_region2" : "N/A",
		"country_code" : "RU",
		"longitude" : 100.218,
		"latitude" : 64.2777
	},
	{
		"id" : 182,
		"station_name" : "719674",
		"name" : "Haines Junction",
		"administrative_region1" : "Yukon",
		"administrative_region2" : "N/A",
		"country_code" : "CA",
		"longitude" : -137.511,
		"latitude" : 60.7522
	},
	{
		"id" : 183,
		"station_name" : "474130",
		"name" : "Iwamizawa",
		"administrative_region1" : "Hokkaido",
		"administrative_region2" : "N/A",
		"country_code" : "JP",
		"longitude" : 141.76,
		"latitude" : 43.2003
	},
	{
		"id" : 184,
		"station_name" : "122810",
		"name" : "Bydgoszcz",
		"administrative_region1" : "Kujawsko-Pomorskie",
		"administrative_region2" : "Bydgoszcz",
		"country_code" : "PL",
		"longitude" : 18.0076,
		"latitude" : 53.1235
	},
	{
		"id" : 185,
		"station_name" : "34940",
		"name" : "North Walsham",
		"administrative_region1" : "England",
		"administrative_region2" : "Norfolk",
		"country_code" : "GB",
		"longitude" : 1.38746,
		"latitude" : 52.8212
	},
	{
		"id" : 186,
		"station_name" : "841170",
		"name" : "Manta",
		"administrative_region1" : "Manabi",
		"administrative_region2" : "N/A",
		"country_code" : "EC",
		"longitude" : -80.7127,
		"latitude" : -0.96212
	},
	{
		"id" : 187,
		"station_name" : "122800",
		"name" : "Mikolajki",
		"administrative_region1" : "Warmian-Masurian Voivodeship",
		"administrative_region2" : "Powiat mragowski",
		"country_code" : "PL",
		"longitude" : 21.5701,
		"latitude" : 53.8029
	},
	{
		"id" : 188,
		"station_name" : "105320",
		"name" : "Giessen",
		"administrative_region1" : "Hesse",
		"administrative_region2" : "Regierungsbezirk Giessen",
		"country_code" : "DE",
		"longitude" : 8.67554,
		"latitude" : 50.5873
	},
	{
		"id" : 189,
		"station_name" : "474170",
		"name" : "Obihiro",
		"administrative_region1" : "Hokkaido",
		"administrative_region2" : "N/A",
		"country_code" : "JP",
		"longitude" : 143.204,
		"latitude" : 42.9172
	},
	{
		"id" : 190,
		"station_name" : "34920",
		"name" : "Thorpe Hamlet",
		"administrative_region1" : "England",
		"administrative_region2" : "Norfolk",
		"country_code" : "GB",
		"longitude" : 1.31175,
		"latitude" : 52.6277
	},
	{
		"id" : 191,
		"station_name" : "70380",
		"name" : "Gravigny",
		"administrative_region1" : "Haute-Normandie",
		"administrative_region2" : "Departement de l'Eure",
		"country_code" : "FR",
		"longitude" : 1.16962,
		"latitude" : 49.0531
	},
	{
		"id" : 192,
		"station_name" : "70370",
		"name" : "Boos",
		"administrative_region1" : "Haute-Normandie",
		"administrative_region2" : "Departement de la Seine-Maritime",
		"country_code" : "FR",
		"longitude" : 1.20348,
		"latitude" : 49.3885
	},
	{
		"id" : 193,
		"station_name" : "505270",
		"name" : "Fendou",
		"administrative_region1" : "Inner Mongolia",
		"administrative_region2" : "N/A",
		"country_code" : "CN",
		"longitude" : 119.769,
		"latitude" : 49.1973
	},
	{
		"id" : 194,
		"station_name" : "719640",
		"name" : "Whitehorse",
		"administrative_region1" : "Yukon",
		"administrative_region2" : "N/A",
		"country_code" : "CA",
		"longitude" : -135.054,
		"latitude" : 60.7161
	},
	{
		"id" : 195,
		"station_name" : "841230",
		"name" : "Latacunga",
		"administrative_region1" : "Cotopaxi",
		"administrative_region2" : "N/A",
		"country_code" : "EC",
		"longitude" : -78.6155,
		"latitude" : -0.93521
	},
	{
		"id" : 196,
		"station_name" : "475120",
		"name" : "Ofunato",
		"administrative_region1" : "Iwate",
		"administrative_region2" : "N/A",
		"country_code" : "JP",
		"longitude" : 141.717,
		"latitude" : 39.0717
	},
	{
		"id" : 197,
		"station_name" : "719070",
		"name" : "Matagami",
		"administrative_region1" : "Quebec",
		"administrative_region2" : "Nord-du-Quebec",
		"country_code" : "CA",
		"longitude" : -77.6328,
		"latitude" : 49.7502
	},
	{
		"id" : 198,
		"station_name" : "684380",
		"name" : "Kimberley",
		"administrative_region1" : "Northern Cape",
		"administrative_region2" : "Frances Baard District Municipality",
		"country_code" : "ZA",
		"longitude" : 24.7623,
		"latitude" : -28.7323
	},
	{
		"id" : 199,
		"station_name" : "563740",
		"name" : "Kangding",
		"administrative_region1" : "Sichuan",
		"administrative_region2" : "N/A",
		"country_code" : "CN",
		"longitude" : 101.96,
		"latitude" : 30.0513
	},
	{
		"id" : 200,
		"station_name" : "719060",
		"name" : "Labrador City",
		"administrative_region1" : "Newfoundland and Labrador",
		"administrative_region2" : "N/A",
		"country_code" : "CA",
		"longitude" : -66.9114,
		"latitude" : 52.9463
	},
	{
		"id" : 201,
		"station_name" : "824000",
		"name" : "Fernando de Noronha (Distrito Estadual)",
		"administrative_region1" : "Pernambuco",
		"administrative_region2" : "Fernando De Noronha",
		"country_code" : "BR",
		"longitude" : -32.4108,
		"latitude" : -3.84028
	},
	{
		"id" : 202,
		"station_name" : "282160",
		"name" : "Vereshchagino",
		"administrative_region1" : "Perm",
		"administrative_region2" : "N/A",
		"country_code" : "RU",
		"longitude" : 54.6557,
		"latitude" : 58.0789
	},
	{
		"id" : 203,
		"station_name" : "765710",
		"name" : "Aguascalientes",
		"administrative_region1" : "Aguascalientes",
		"administrative_region2" : "Aguascalientes",
		"country_code" : "MX",
		"longitude" : -102.283,
		"latitude" : 21.8823
	},
	{
		"id" : 204,
		"station_name" : "746061",
		"name" : "Lompoc",
		"administrative_region1" : "California",
		"administrative_region2" : "Santa Barbara County",
		"country_code" : "US",
		"longitude" : -120.458,
		"latitude" : 34.6391
	},
	{
		"id" : 205,
		"station_name" : "719050",
		"name" : "Matagami",
		"administrative_region1" : "Quebec",
		"administrative_region2" : "Nord-du-Quebec",
		"country_code" : "CA",
		"longitude" : -77.6328,
		"latitude" : 49.7502
	},
	{
		"id" : 206,
		"station_name" : "703500",
		"name" : "Kodiak",
		"administrative_region1" : "Alaska",
		"administrative_region2" : "Kodiak Island Borough",
		"country_code" : "US",
		"longitude" : -152.407,
		"latitude" : 57.79
	},
	{
		"id" : 207,
		"station_name" : "295780",
		"name" : "Shalinskoye",
		"administrative_region1" : "Krasnoyarskiy",
		"administrative_region2" : "N/A",
		"country_code" : "RU",
		"longitude" : 93.7589,
		"latitude" : 55.7194
	},
	{
		"id" : 208,
		"station_name" : "719041",
		"name" : "Iqaluit",
		"administrative_region1" : "Nunavut",
		"administrative_region2" : "N/A",
		"country_code" : "CA",
		"longitude" : -68.5173,
		"latitude" : 63.747
	},
	{
		"id" : 209,
		"station_name" : "35773",
		"name" : "Lakenheath",
		"administrative_region1" : "England",
		"administrative_region2" : "Suffolk",
		"country_code" : "GB",
		"longitude" : 0.52211,
		"latitude" : 52.4175
	},
	{
		"id" : 210,
		"station_name" : "35770",
		"name" : "Lakenheath",
		"administrative_region1" : "England",
		"administrative_region2" : "Suffolk",
		"country_code" : "GB",
		"longitude" : 0.52211,
		"latitude" : 52.4175
	},
	{
		"id" : 211,
		"station_name" : "35771",
		"name" : "Lakenheath",
		"administrative_region1" : "England",
		"administrative_region2" : "Suffolk",
		"country_code" : "GB",
		"longitude" : 0.52211,
		"latitude" : 52.4175
	},
	{
		"id" : 212,
		"station_name" : "282140",
		"name" : "Glazov",
		"administrative_region1" : "Udmurtiya",
		"administrative_region2" : "N/A",
		"country_code" : "RU",
		"longitude" : 52.658,
		"latitude" : 58.1393
	},
	{
		"id" : 213,
		"station_name" : "948640",
		"name" : "Lilydale",
		"administrative_region1" : "Victoria",
		"administrative_region2" : "Yarra Ranges",
		"country_code" : "AU",
		"longitude" : 145.35,
		"latitude" : -37.75
	},
	{
		"id" : 214,
		"station_name" : "35715",
		"name" : "Cambridge",
		"administrative_region1" : "England",
		"administrative_region2" : "Cambridgeshire",
		"country_code" : "GB",
		"longitude" : 0.11667,
		"latitude" : 52.2
	},
	{
		"id" : 215,
		"station_name" : "607350",
		"name" : "Kairouan",
		"administrative_region1" : "Al Qayrawan",
		"administrative_region2" : "N/A",
		"country_code" : "TN",
		"longitude" : 10.0963,
		"latitude" : 35.6781
	},
	{
		"id" : 216,
		"station_name" : "719100",
		"name" : "Iqaluit",
		"administrative_region1" : "Nunavut",
		"administrative_region2" : "N/A",
		"country_code" : "CA",
		"longitude" : -68.5173,
		"latitude" : 63.747
	},
	{
		"id" : 217,
		"station_name" : "334290",
		"name" : "Khmel'nyts'kyy",
		"administrative_region1" : "Khmelnytskyi",
		"administrative_region2" : "N/A",
		"country_code" : "UA",
		"longitude" : 26.9965,
		"latitude" : 49.4216
	},
	{
		"id" : 218,
		"station_name" : "719090",
		"name" : "Iqaluit",
		"administrative_region1" : "Nunavut",
		"administrative_region2" : "N/A",
		"country_code" : "CA",
		"longitude" : -68.5173,
		"latitude" : 63.747
	},
	{
		"id" : 219,
		"station_name" : "948650",
		"name" : "Williams Landing",
		"administrative_region1" : "Victoria",
		"administrative_region2" : "Wyndham",
		"country_code" : "AU",
		"longitude" : 144.744,
		"latitude" : -37.8619
	},
	{
		"id" : 220,
		"station_name" : "435550",
		"name" : "Male",
		"administrative_region1" : "Maale",
		"administrative_region2" : "N/A",
		"country_code" : "MV",
		"longitude" : 73.5089,
		"latitude" : 4.1748
	},
	{
		"id" : 221,
		"station_name" : "69900",
		"name" : "Vaduz",
		"administrative_region1" : "Vaduz",
		"administrative_region2" : "N/A",
		"country_code" : "LI",
		"longitude" : 9.52154,
		"latitude" : 47.1415
	},
	{
		"id" : 222,
		"station_name" : "295760",
		"name" : "Uyar",
		"administrative_region1" : "Krasnoyarskiy",
		"administrative_region2" : "N/A",
		"country_code" : "RU",
		"longitude" : 94.3247,
		"latitude" : 55.8118
	},
	{
		"id" : 223,
		"station_name" : "719081",
		"name" : "Iqaluit",
		"administrative_region1" : "Nunavut",
		"administrative_region2" : "N/A",
		"country_code" : "CA",
		"longitude" : -68.5173,
		"latitude" : 63.747
	},
	{
		"id" : 224,
		"station_name" : "948660",
		"name" : "Attwood",
		"administrative_region1" : "Victoria",
		"administrative_region2" : "Hume",
		"country_code" : "AU",
		"longitude" : 144.887,
		"latitude" : -37.6696
	},
	{
		"id" : 225,
		"station_name" : "104600",
		"name" : "Voigtstedt",
		"administrative_region1" : "Thuringia",
		"administrative_region2" : "N/A",
		"country_code" : "DE",
		"longitude" : 11.3167,
		"latitude" : 51.3833
	},
	{
		"id" : 226,
		"station_name" : "719073",
		"name" : "Matagami",
		"administrative_region1" : "Quebec",
		"administrative_region2" : "Nord-du-Quebec",
		"country_code" : "CA",
		"longitude" : -77.6328,
		"latitude" : 49.7502
	},
	{
		"id" : 227,
		"station_name" : "979000",
		"name" : "Tual",
		"administrative_region1" : "Maluku",
		"administrative_region2" : "N/A",
		"country_code" : "ID",
		"longitude" : 132.789,
		"latitude" : -5.6193
	},
	{
		"id" : 228,
		"station_name" : "607340",
		"name" : "Siliana",
		"administrative_region1" : "Silyanah",
		"administrative_region2" : "N/A",
		"country_code" : "TN",
		"longitude" : 9.37082,
		"latitude" : 36.085
	},
	{
		"id" : 229,
		"station_name" : "719077",
		"name" : "Iqaluit",
		"administrative_region1" : "Nunavut",
		"administrative_region2" : "N/A",
		"country_code" : "CA",
		"longitude" : -68.5173,
		"latitude" : 63.747
	},
	{
		"id" : 230,
		"station_name" : "121950",
		"name" : "Suwalki",
		"administrative_region1" : "Podlasie",
		"administrative_region2" : "Suwalki",
		"country_code" : "PL",
		"longitude" : 22.9309,
		"latitude" : 54.1118
	},
	{
		"id" : 231,
		"station_name" : "841290",
		"name" : "Eloy Alfaro",
		"administrative_region1" : "Guayas",
		"administrative_region2" : "N/A",
		"country_code" : "EC",
		"longitude" : -79.8552,
		"latitude" : -2.17579
	},
	{
		"id" : 232,
		"station_name" : "719000",
		"name" : "Happy Valley-Goose Bay",
		"administrative_region1" : "Newfoundland and Labrador",
		"administrative_region2" : "N/A",
		"country_code" : "CA",
		"longitude" : -60.3315,
		"latitude" : 53.3168
	},
	{
		"id" : 233,
		"station_name" : "295740",
		"name" : "Krasnoyarsk",
		"administrative_region1" : "Krasnoyarskiy",
		"administrative_region2" : "N/A",
		"country_code" : "RU",
		"longitude" : 92.8672,
		"latitude" : 56.0184
	},
	{
		"id" : 234,
		"station_name" : "382200",
		"name" : "Bishkek",
		"administrative_region1" : "Chuy",
		"administrative_region2" : "N/A",
		"country_code" : "KG",
		"longitude" : 74.59,
		"latitude" : 42.87
	},
	{
		"id" : 235,
		"station_name" : "607250",
		"name" : "Jendouba",
		"administrative_region1" : "Jundubah",
		"administrative_region2" : "N/A",
		"country_code" : "TN",
		"longitude" : 8.78024,
		"latitude" : 36.5011
	},
	{
		"id" : 236,
		"station_name" : "871620",
		"name" : "Formosa",
		"administrative_region1" : "Formosa",
		"administrative_region2" : "N/A",
		"country_code" : "AR",
		"longitude" : -58.1781,
		"latitude" : -26.1775
	},
	{
		"id" : 237,
		"station_name" : "226210",
		"name" : "Segezha",
		"administrative_region1" : "Republic of Karelia",
		"administrative_region2" : "N/A",
		"country_code" : "RU",
		"longitude" : 34.3222,
		"latitude" : 63.7415
	},
	{
		"id" : 238,
		"station_name" : "104680",
		"name" : "Niemberg",
		"administrative_region1" : "Saxony-Anhalt",
		"administrative_region2" : "N/A",
		"country_code" : "DE",
		"longitude" : 12.0909,
		"latitude" : 51.5504
	},
	{
		"id" : 239,
		"station_name" : "948680",
		"name" : "Melbourne",
		"administrative_region1" : "Victoria",
		"administrative_region2" : "Melbourne",
		"country_code" : "AU",
		"longitude" : 144.963,
		"latitude" : -37.814
	},
	{
		"id" : 240,
		"station_name" : "546560",
		"name" : "Beichangshan",
		"administrative_region1" : "Shandong Sheng",
		"administrative_region2" : "N/A",
		"country_code" : "CN",
		"longitude" : 120.722,
		"latitude" : 37.9653
	},
	{
		"id" : 241,
		"station_name" : "718990",
		"name" : "Craig",
		"administrative_region1" : "Alaska",
		"administrative_region2" : "Annette Island Reserve",
		"country_code" : "US",
		"longitude" : -133.148,
		"latitude" : 55.4764
	},
	{
		"id" : 242,
		"station_name" : "104690",
		"name" : "Schkeuditz",
		"administrative_region1" : "Saxony",
		"administrative_region2" : "N/A",
		"country_code" : "DE",
		"longitude" : 12.2214,
		"latitude" : 51.3968
	},
	{
		"id" : 243,
		"station_name" : "35830",
		"name" : "Lakenheath",
		"administrative_region1" : "England",
		"administrative_region2" : "Suffolk",
		"country_code" : "GB",
		"longitude" : 0.52211,
		"latitude" : 52.4175
	},
	{
		"id" : 244,
		"station_name" : "765773",
		"name" : "Colonia Nuevo Mexico",
		"administrative_region1" : "Guanajuato",
		"administrative_region2" : "N/A",
		"country_code" : "MX",
		"longitude" : -101.485,
		"latitude" : 20.9848
	},
	{
		"id" : 245,
		"station_name" : "35831",
		"name" : "Lakenheath",
		"administrative_region1" : "England",
		"administrative_region2" : "Suffolk",
		"country_code" : "GB",
		"longitude" : 0.52211,
		"latitude" : 52.4175
	},
	{
		"id" : 246,
		"station_name" : "745985",
		"name" : "Horse Pasture",
		"administrative_region1" : "Virginia",
		"administrative_region2" : "Henry County",
		"country_code" : "US",
		"longitude" : -79.9509,
		"latitude" : 36.6285
	},
	{
		"id" : 247,
		"station_name" : "35833",
		"name" : "Lakenheath",
		"administrative_region1" : "England",
		"administrative_region2" : "Suffolk",
		"country_code" : "GB",
		"longitude" : 0.52211,
		"latitude" : 52.4175
	},
	{
		"id" : 248,
		"station_name" : "718980",
		"name" : "Prince Rupert",
		"administrative_region1" : "British Columbia",
		"administrative_region2" : "Skeena-Queen Charlotte Regional District",
		"country_code" : "CA",
		"longitude" : -130.321,
		"latitude" : 54.3151
	},
	{
		"id" : 249,
		"station_name" : "104700",
		"name" : "Harsum",
		"administrative_region1" : "Lower Saxony",
		"administrative_region2" : "N/A",
		"country_code" : "DE",
		"longitude" : 9.96486,
		"latitude" : 52.2104
	},
	{
		"id" : 250,
		"station_name" : "264870",
		"name" : "Zapadnaya Dvina",
		"administrative_region1" : "Tverskaya",
		"administrative_region2" : "N/A",
		"country_code" : "RU",
		"longitude" : 32.0745,
		"latitude" : 56.259
	},
	{
		"id" : 251,
		"station_name" : "121860",
		"name" : "Bydgoszcz",
		"administrative_region1" : "Kujawsko-Pomorskie",
		"administrative_region2" : "Bydgoszcz",
		"country_code" : "PL",
		"longitude" : 18.0076,
		"latitude" : 53.1235
	},
	{
		"id" : 252,
		"station_name" : "590070",
		"name" : "Liancheng",
		"administrative_region1" : "Yunnan",
		"administrative_region2" : "N/A",
		"country_code" : "CN",
		"longitude" : 105.075,
		"latitude" : 24.0519
	},
	{
		"id" : 253,
		"station_name" : "854060",
		"name" : "Arica",
		"administrative_region1" : "Arica y Parinacota",
		"administrative_region2" : "Provincia de Arica",
		"country_code" : "CL",
		"longitude" : -70.2979,
		"latitude" : -18.4746
	},
	{
		"id" : 254,
		"station_name" : "871660",
		"name" : "Corrientes",
		"administrative_region1" : "Corrientes",
		"administrative_region2" : "N/A",
		"country_code" : "AR",
		"longitude" : -58.8341,
		"latitude" : -27.4806
	},
	{
		"id" : 255,
		"station_name" : "703610",
		"name" : "Haines Junction",
		"administrative_region1" : "Yukon",
		"administrative_region2" : "N/A",
		"country_code" : "CA",
		"longitude" : -137.511,
		"latitude" : 60.7522
	},
	{
		"id" : 256,
		"station_name" : "823980",
		"name" : "Fortaleza",
		"administrative_region1" : "Ceara",
		"administrative_region2" : "Fortaleza",
		"country_code" : "BR",
		"longitude" : -38.5431,
		"latitude" : -3.71722
	},
	{
		"id" : 257,
		"station_name" : "607280",
		"name" : "Nabeul",
		"administrative_region1" : "Nabul",
		"administrative_region2" : "N/A",
		"country_code" : "TN",
		"longitude" : 10.7376,
		"latitude" : 36.4561
	},
	{
		"id" : 258,
		"station_name" : "703605",
		"name" : "Bethel",
		"administrative_region1" : "Alaska",
		"administrative_region2" : "Bethel Census Area",
		"country_code" : "US",
		"longitude" : -161.756,
		"latitude" : 60.7922
	},
	{
		"id" : 259,
		"station_name" : "703604",
		"name" : "Homer",
		"administrative_region1" : "Alaska",
		"administrative_region2" : "Kenai Peninsula Borough",
		"country_code" : "US",
		"longitude" : -151.549,
		"latitude" : 59.6425
	},
	{
		"id" : 260,
		"station_name" : "546620",
		"name" : "Dalian",
		"administrative_region1" : "Liaoning",
		"administrative_region2" : "Dalian Shi",
		"country_code" : "CN",
		"longitude" : 121.602,
		"latitude" : 38.9122
	},
	{
		"id" : 261,
		"station_name" : "295700",
		"name" : "Krasnoyarsk",
		"administrative_region1" : "Krasnoyarskiy",
		"administrative_region2" : "N/A",
		"country_code" : "RU",
		"longitude" : 92.8672,
		"latitude" : 56.0184
	},
	{
		"id" : 262,
		"station_name" : "703600",
		"name" : "Cordova",
		"administrative_region1" : "Alaska",
		"administrative_region2" : "Valdez-Cordova Census Area",
		"country_code" : "US",
		"longitude" : -145.758,
		"latitude" : 60.5428
	},
	{
		"id" : 263,
		"station_name" : "104660",
		"name" : "Sennewitz",
		"administrative_region1" : "Saxony-Anhalt",
		"administrative_region2" : "N/A",
		"country_code" : "DE",
		"longitude" : 11.9522,
		"latitude" : 51.5433
	},
	{
		"id" : 264,
		"station_name" : "313290",
		"name" : "Ekimchan",
		"administrative_region1" : "Amur",
		"administrative_region2" : "N/A",
		"country_code" : "RU",
		"longitude" : 132.94,
		"latitude" : 53.0697
	},
	{
		"id" : 265,
		"station_name" : "260635",
		"name" : "Petrogradka",
		"administrative_region1" : "St.-Petersburg",
		"administrative_region2" : "N/A",
		"country_code" : "RU",
		"longitude" : 30.3115,
		"latitude" : 59.9657
	},
	{
		"id" : 266,
		"station_name" : "719020",
		"name" : "Happy Valley-Goose Bay",
		"administrative_region1" : "Newfoundland and Labrador",
		"administrative_region2" : "N/A",
		"country_code" : "CA",
		"longitude" : -60.3315,
		"latitude" : 53.3168
	},
	{
		"id" : 267,
		"station_name" : "260636",
		"name" : "Petrogradka",
		"administrative_region1" : "St.-Petersburg",
		"administrative_region2" : "N/A",
		"country_code" : "RU",
		"longitude" : 30.3115,
		"latitude" : 59.9657
	},
	{
		"id" : 268,
		"station_name" : "719010",
		"name" : "Happy Valley-Goose Bay",
		"administrative_region1" : "Newfoundland and Labrador",
		"administrative_region2" : "N/A",
		"country_code" : "CA",
		"longitude" : -60.3315,
		"latitude" : 53.3168
	},
	{
		"id" : 269,
		"station_name" : "260630",
		"name" : "Petrogradka",
		"administrative_region1" : "St.-Petersburg",
		"administrative_region2" : "N/A",
		"country_code" : "RU",
		"longitude" : 30.3115,
		"latitude" : 59.9657
	},
	{
		"id" : 270,
		"station_name" : "104490",
		"name" : "Leinefelde",
		"administrative_region1" : "Thuringia",
		"administrative_region2" : "N/A",
		"country_code" : "DE",
		"longitude" : 10.3262,
		"latitude" : 51.388
	},
	{
		"id" : 271,
		"station_name" : "607450",
		"name" : "Gafsa",
		"administrative_region1" : "Gafsa",
		"administrative_region2" : "Gafsa Municipality",
		"country_code" : "TN",
		"longitude" : 8.78417,
		"latitude" : 34.425
	},
	{
		"id" : 272,
		"station_name" : "718930",
		"name" : "Courtenay",
		"administrative_region1" : "British Columbia",
		"administrative_region2" : "N/A",
		"country_code" : "CA",
		"longitude" : -124.994,
		"latitude" : 49.6866
	},
	{
		"id" : 273,
		"station_name" : "175400",
		"name" : "Famagusta",
		"administrative_region1" : "Ammochostos",
		"administrative_region2" : "N/A",
		"country_code" : "CY",
		"longitude" : 33.9389,
		"latitude" : 35.1205
	},
	{
		"id" : 274,
		"station_name" : "35621",
		"name" : "Great Stukeley",
		"administrative_region1" : "England",
		"administrative_region2" : "Cambridgeshire",
		"country_code" : "GB",
		"longitude" : -0.21071,
		"latitude" : 52.3566
	},
	{
		"id" : 275,
		"station_name" : "718936",
		"name" : "Campbell River",
		"administrative_region1" : "British Columbia",
		"administrative_region2" : "N/A",
		"country_code" : "CA",
		"longitude" : -125.245,
		"latitude" : 50.0163
	},
	{
		"id" : 276,
		"station_name" : "104480",
		"name" : "Harsum",
		"administrative_region1" : "Lower Saxony",
		"administrative_region2" : "N/A",
		"country_code" : "DE",
		"longitude" : 9.96486,
		"latitude" : 52.2104
	},
	{
		"id" : 277,
		"station_name" : "35623",
		"name" : "Great Stukeley",
		"administrative_region1" : "England",
		"administrative_region2" : "Cambridgeshire",
		"country_code" : "GB",
		"longitude" : -0.21071,
		"latitude" : 52.3566
	},
	{
		"id" : 278,
		"station_name" : "70050",
		"name" : "Abbeville",
		"administrative_region1" : "Picardie",
		"administrative_region2" : "Departement de la Somme",
		"country_code" : "FR",
		"longitude" : 1.83333,
		"latitude" : 50.1
	},
	{
		"id" : 279,
		"station_name" : "718940",
		"name" : "Tofino",
		"administrative_region1" : "British Columbia",
		"administrative_region2" : "Regional District of Alberni-Clayoquot",
		"country_code" : "CA",
		"longitude" : -125.907,
		"latitude" : 49.1531
	},
	{
		"id" : 280,
		"station_name" : "718915",
		"name" : "Hope",
		"administrative_region1" : "British Columbia",
		"administrative_region2" : "N/A",
		"country_code" : "CA",
		"longitude" : -121.441,
		"latitude" : 49.383
	},
	{
		"id" : 281,
		"station_name" : "703620",
		"name" : "Haines",
		"administrative_region1" : "Alaska",
		"administrative_region2" : "Haines Borough",
		"country_code" : "US",
		"longitude" : -135.444,
		"latitude" : 59.2286
	},
	{
		"id" : 282,
		"station_name" : "948510",
		"name" : "Currie",
		"administrative_region1" : "Tasmania",
		"administrative_region2" : "King Island",
		"country_code" : "AU",
		"longitude" : 143.854,
		"latitude" : -39.9298
	},
	{
		"id" : 283,
		"station_name" : "563850",
		"name" : "Suishan",
		"administrative_region1" : "Sichuan",
		"administrative_region2" : "N/A",
		"country_code" : "CN",
		"longitude" : 103.486,
		"latitude" : 29.6083
	},
	{
		"id" : 284,
		"station_name" : "718920",
		"name" : "Richmond",
		"administrative_region1" : "British Columbia",
		"administrative_region2" : "N/A",
		"country_code" : "CA",
		"longitude" : -123.137,
		"latitude" : 49.17
	},
	{
		"id" : 285,
		"station_name" : "703625",
		"name" : "Haines",
		"administrative_region1" : "Alaska",
		"administrative_region2" : "Haines Borough",
		"country_code" : "US",
		"longitude" : -135.444,
		"latitude" : 59.2286
	},
	{
		"id" : 286,
		"station_name" : "703626",
		"name" : "Haines",
		"administrative_region1" : "Alaska",
		"administrative_region2" : "Haines Borough",
		"country_code" : "US",
		"longitude" : -135.444,
		"latitude" : 59.2286
	},
	{
		"id" : 287,
		"station_name" : "351660",
		"name" : "Zhaqsy",
		"administrative_region1" : "Aqmola",
		"administrative_region2" : "N/A",
		"country_code" : "KZ",
		"longitude" : 67.3167,
		"latitude" : 51.9106
	},
	{
		"id" : 288,
		"station_name" : "505570",
		"name" : "Nenjiang",
		"administrative_region1" : "Heilongjiang Sheng",
		"administrative_region2" : "N/A",
		"country_code" : "CN",
		"longitude" : 125.218,
		"latitude" : 49.1741
	},
	{
		"id" : 289,
		"station_name" : "718925",
		"name" : "West End",
		"administrative_region1" : "British Columbia",
		"administrative_region2" : "N/A",
		"country_code" : "CA",
		"longitude" : -123.133,
		"latitude" : 49.2833
	},
	{
		"id" : 290,
		"station_name" : "948520",
		"name" : "Newington",
		"administrative_region1" : "Victoria",
		"administrative_region2" : "Ballarat North",
		"country_code" : "AU",
		"longitude" : 143.825,
		"latitude" : -37.5585
	},
	{
		"id" : 291,
		"station_name" : "313110",
		"name" : "Zeya",
		"administrative_region1" : "Amur",
		"administrative_region2" : "N/A",
		"country_code" : "RU",
		"longitude" : 127.257,
		"latitude" : 53.736
	},
	{
		"id" : 292,
		"station_name" : "607480",
		"name" : "Sidi Bouzid",
		"administrative_region1" : "Sidi Bu Zayd",
		"administrative_region2" : "N/A",
		"country_code" : "TN",
		"longitude" : 9.48494,
		"latitude" : 35.0382
	},
	{
		"id" : 293,
		"station_name" : "718960",
		"name" : "Prince George",
		"administrative_region1" : "British Columbia",
		"administrative_region2" : "N/A",
		"country_code" : "CA",
		"longitude" : -122.753,
		"latitude" : 53.9166
	},
	{
		"id" : 294,
		"station_name" : "70030",
		"name" : "Etaples",
		"administrative_region1" : "Nord-Pas-de-Calais",
		"administrative_region2" : "Departement du Pas-de-Calais",
		"country_code" : "FR",
		"longitude" : 1.63319,
		"latitude" : 50.5219
	},
	{
		"id" : 295,
		"station_name" : "35590",
		"name" : "Cardington",
		"administrative_region1" : "England",
		"administrative_region2" : "Bedford",
		"country_code" : "GB",
		"longitude" : -0.41289,
		"latitude" : 52.1174
	},
	{
		"id" : 296,
		"station_name" : "841390",
		"name" : "Cuenca",
		"administrative_region1" : "Azuay",
		"administrative_region2" : "N/A",
		"country_code" : "EC",
		"longitude" : -79.0045,
		"latitude" : -2.90055
	},
	{
		"id" : 297,
		"station_name" : "122050",
		"name" : "Szczecin",
		"administrative_region1" : "West Pomeranian Voivodeship",
		"administrative_region2" : "Szczecin",
		"country_code" : "PL",
		"longitude" : 14.553,
		"latitude" : 53.4289
	},
	{
		"id" : 298,
		"station_name" : "381980",
		"name" : "Turkestan",
		"administrative_region1" : "Ongtustik Qazaqstan",
		"administrative_region2" : "N/A",
		"country_code" : "KZ",
		"longitude" : 68.25,
		"latitude" : 43.3333
	},
	{
		"id" : 299,
		"station_name" : "70020",
		"name" : "Saint-Martin-Boulogne",
		"administrative_region1" : "Nord-Pas-de-Calais",
		"administrative_region2" : "Departement du Pas-de-Calais",
		"country_code" : "FR",
		"longitude" : 1.61864,
		"latitude" : 50.7269
	},
	{
		"id" : 300,
		"station_name" : "703650",
		"name" : "Haines",
		"administrative_region1" : "Alaska",
		"administrative_region2" : "Haines Borough",
		"country_code" : "US",
		"longitude" : -135.444,
		"latitude" : 59.2286
	},
	{
		"id" : 301,
		"station_name" : "334150",
		"name" : "Ternopil'",
		"administrative_region1" : "Ternopil",
		"administrative_region2" : "N/A",
		"country_code" : "UA",
		"longitude" : 25.6056,
		"latitude" : 49.5559
	},
	{
		"id" : 302,
		"station_name" : "718950",
		"name" : "Tofino",
		"administrative_region1" : "British Columbia",
		"administrative_region2" : "Regional District of Alberni-Clayoquot",
		"country_code" : "CA",
		"longitude" : -125.907,
		"latitude" : 49.1531
	},
	{
		"id" : 303,
		"station_name" : "282240",
		"name" : "Perm",
		"administrative_region1" : "Perm",
		"administrative_region2" : "N/A",
		"country_code" : "RU",
		"longitude" : 56.2502,
		"latitude" : 58.0105
	},
	{
		"id" : 304,
		"station_name" : "718951",
		"name" : "Tofino",
		"administrative_region1" : "British Columbia",
		"administrative_region2" : "Regional District of Alberni-Clayoquot",
		"country_code" : "CA",
		"longitude" : -125.907,
		"latitude" : 49.1531
	},
	{
		"id" : 305,
		"station_name" : "264770",
		"name" : "Velikiye Luki",
		"administrative_region1" : "Pskov",
		"administrative_region2" : "N/A",
		"country_code" : "RU",
		"longitude" : 30.5452,
		"latitude" : 56.34
	},
	{
		"id" : 306,
		"station_name" : "381960",
		"name" : "Ashchysay",
		"administrative_region1" : "Ongtustik Qazaqstan",
		"administrative_region2" : "N/A",
		"country_code" : "KZ",
		"longitude" : 68.8889,
		"latitude" : 43.5542
	},
	{
		"id" : 307,
		"station_name" : "871480",
		"name" : "Presidencia Roque Saenz Pena",
		"administrative_region1" : "Chaco",
		"administrative_region2" : "N/A",
		"country_code" : "AR",
		"longitude" : -60.4388,
		"latitude" : -26.7852
	},
	{
		"id" : 308,
		"station_name" : "122070",
		"name" : "Bydgoszcz",
		"administrative_region1" : "Kujawsko-Pomorskie",
		"administrative_region2" : "Bydgoszcz",
		"country_code" : "PL",
		"longitude" : 18.0076,
		"latitude" : 53.1235
	},
	{
		"id" : 309,
		"station_name" : "282250",
		"name" : "Froly",
		"administrative_region1" : "Perm",
		"administrative_region2" : "N/A",
		"country_code" : "RU",
		"longitude" : 56.2728,
		"latitude" : 57.9214
	},
	{
		"id" : 310,
		"station_name" : "765906",
		"name" : "Alfredo V. Bonfil",
		"administrative_region1" : "Quintana Roo",
		"administrative_region2" : "N/A",
		"country_code" : "MX",
		"longitude" : -86.8471,
		"latitude" : 21.0878
	},
	{
		"id" : 311,
		"station_name" : "718870",
		"name" : "Kamloops",
		"administrative_region1" : "British Columbia",
		"administrative_region2" : "N/A",
		"country_code" : "CA",
		"longitude" : -120.319,
		"latitude" : 50.6665
	},
	{
		"id" : 312,
		"station_name" : "765905",
		"name" : "Alfredo V. Bonfil",
		"administrative_region1" : "Quintana Roo",
		"administrative_region2" : "N/A",
		"country_code" : "MX",
		"longitude" : -86.8471,
		"latitude" : 21.0878
	},
	{
		"id" : 313,
		"station_name" : "718864",
		"name" : "Princeton",
		"administrative_region1" : "British Columbia",
		"administrative_region2" : "N/A",
		"country_code" : "CA",
		"longitude" : -120.511,
		"latitude" : 49.458
	},
	{
		"id" : 314,
		"station_name" : "351730",
		"name" : "Astrakhan",
		"administrative_region1" : "Aqmola",
		"administrative_region2" : "N/A",
		"country_code" : "KZ",
		"longitude" : 69.7968,
		"latitude" : 51.5309
	},
	{
		"id" : 315,
		"station_name" : "871490",
		"name" : "Presidencia Roque Saenz Pena",
		"administrative_region1" : "Chaco",
		"administrative_region2" : "N/A",
		"country_code" : "AR",
		"longitude" : -60.4388,
		"latitude" : -26.7852
	},
	{
		"id" : 316,
		"station_name" : "607380",
		"name" : "Thala",
		"administrative_region1" : "Al Qasrayn",
		"administrative_region2" : "N/A",
		"country_code" : "TN",
		"longitude" : 8.67031,
		"latitude" : 35.5724
	},
	{
		"id" : 317,
		"station_name" : "703710",
		"name" : "Sitka",
		"administrative_region1" : "Alaska",
		"administrative_region2" : "Sitka City and Borough",
		"country_code" : "US",
		"longitude" : -135.331,
		"latitude" : 57.0532
	},
	{
		"id" : 318,
		"station_name" : "260780",
		"name" : "Lyuban'",
		"administrative_region1" : "Leningrad",
		"administrative_region2" : "N/A",
		"country_code" : "RU",
		"longitude" : 31.2167,
		"latitude" : 59.35
	},
	{
		"id" : 319,
		"station_name" : "684420",
		"name" : "Bloemfontein",
		"administrative_region1" : "Orange Free State",
		"administrative_region2" : "Mangaung Metropolitan Municipality",
		"country_code" : "ZA",
		"longitude" : 26.214,
		"latitude" : -29.1211
	},
	{
		"id" : 320,
		"station_name" : "104570",
		"name" : "Harsum",
		"administrative_region1" : "Lower Saxony",
		"administrative_region2" : "N/A",
		"country_code" : "DE",
		"longitude" : 9.96486,
		"latitude" : 52.2104
	},
	{
		"id" : 321,
		"station_name" : "404520",
		"name" : "Ras al-Khaimah",
		"administrative_region1" : "Ra's al Khaymah",
		"administrative_region2" : "N/A",
		"country_code" : "AE",
		"longitude" : 55.9432,
		"latitude" : 25.7895
	},
	{
		"id" : 322,
		"station_name" : "718860",
		"name" : "Princeton",
		"administrative_region1" : "British Columbia",
		"administrative_region2" : "N/A",
		"country_code" : "CA",
		"longitude" : -120.511,
		"latitude" : 49.458
	},
	{
		"id" : 323,
		"station_name" : "746120",
		"name" : "Ridgecrest",
		"administrative_region1" : "California",
		"administrative_region2" : "Kern County",
		"country_code" : "US",
		"longitude" : -117.671,
		"latitude" : 35.6225
	},
	{
		"id" : 324,
		"station_name" : "718900",
		"name" : "Ladysmith",
		"administrative_region1" : "British Columbia",
		"administrative_region2" : "Cowichan Valley Regional District",
		"country_code" : "CA",
		"longitude" : -123.817,
		"latitude" : 48.9902
	},
	{
		"id" : 325,
		"station_name" : "104520",
		"name" : "Braunlage",
		"administrative_region1" : "Lower Saxony",
		"administrative_region2" : "N/A",
		"country_code" : "DE",
		"longitude" : 10.6109,
		"latitude" : 51.7265
	},
	{
		"id" : 326,
		"station_name" : "295830",
		"name" : "Nizhnyaya Poyma",
		"administrative_region1" : "Krasnoyarskiy",
		"administrative_region2" : "N/A",
		"country_code" : "RU",
		"longitude" : 97.2065,
		"latitude" : 56.1643
	},
	{
		"id" : 327,
		"station_name" : "35660",
		"name" : "Hemingford Grey",
		"administrative_region1" : "England",
		"administrative_region2" : "Cambridgeshire",
		"country_code" : "GB",
		"longitude" : -0.10029,
		"latitude" : 52.3176
	},
	{
		"id" : 328,
		"station_name" : "35661",
		"name" : "Isle of Islay",
		"administrative_region1" : "Scotland",
		"administrative_region2" : "Argyll and Bute",
		"country_code" : "GB",
		"longitude" : -6.23886,
		"latitude" : 55.7853
	},
	{
		"id" : 329,
		"station_name" : "718910",
		"name" : "Ashcroft",
		"administrative_region1" : "British Columbia",
		"administrative_region2" : "Thompson-Nicola Regional District",
		"country_code" : "CA",
		"longitude" : -121.282,
		"latitude" : 50.7237
	},
	{
		"id" : 330,
		"station_name" : "718905",
		"name" : "Parksville",
		"administrative_region1" : "British Columbia",
		"administrative_region2" : "Regional District of Nanaimo",
		"country_code" : "CA",
		"longitude" : -124.316,
		"latitude" : 49.3195
	},
	{
		"id" : 331,
		"station_name" : "474900",
		"name" : "Obihiro",
		"administrative_region1" : "Hokkaido",
		"administrative_region2" : "N/A",
		"country_code" : "JP",
		"longitude" : 143.204,
		"latitude" : 42.9172
	},
	{
		"id" : 332,
		"station_name" : "474890",
		"name" : "Kushiro",
		"administrative_region1" : "Hokkaido",
		"administrative_region2" : "N/A",
		"country_code" : "JP",
		"longitude" : 144.375,
		"latitude" : 42.975
	},
	{
		"id" : 333,
		"station_name" : "505480",
		"name" : "Nuomin",
		"administrative_region1" : "Inner Mongolia",
		"administrative_region2" : "N/A",
		"country_code" : "CN",
		"longitude" : 123.732,
		"latitude" : 49.1955
	},
	{
		"id" : 334,
		"station_name" : "104540",
		"name" : "Wernigerode",
		"administrative_region1" : "Saxony-Anhalt",
		"administrative_region2" : "N/A",
		"country_code" : "DE",
		"longitude" : 10.7822,
		"latitude" : 51.8365
	},
	{
		"id" : 335,
		"station_name" : "295810",
		"name" : "Kansk",
		"administrative_region1" : "Krasnoyarskiy",
		"administrative_region2" : "N/A",
		"country_code" : "RU",
		"longitude" : 95.7175,
		"latitude" : 56.2017
	},
	{
		"id" : 336,
		"station_name" : "607403",
		"name" : "Sahline",
		"administrative_region1" : "Al Munastir",
		"administrative_region2" : "N/A",
		"country_code" : "TN",
		"longitude" : 10.7111,
		"latitude" : 35.7517
	},
	{
		"id" : 337,
		"station_name" : "404490",
		"name" : "Sharjah",
		"administrative_region1" : "Ash Shariqah",
		"administrative_region2" : "N/A",
		"country_code" : "AE",
		"longitude" : 55.4121,
		"latitude" : 25.3374
	},
	{
		"id" : 338,
		"station_name" : "718880",
		"name" : "Jasper Park Lodge",
		"administrative_region1" : "Alberta",
		"administrative_region2" : "N/A",
		"country_code" : "CA",
		"longitude" : -118.056,
		"latitude" : 52.8863
	},
	{
		"id" : 339,
		"station_name" : "607401",
		"name" : "Sahline",
		"administrative_region1" : "Al Munastir",
		"administrative_region2" : "N/A",
		"country_code" : "TN",
		"longitude" : 10.7111,
		"latitude" : 35.7517
	},
	{
		"id" : 340,
		"station_name" : "607400",
		"name" : "Al Masdur",
		"administrative_region1" : "Al Munastir",
		"administrative_region2" : "N/A",
		"country_code" : "TN",
		"longitude" : 10.7275,
		"latitude" : 35.6821
	},
	{
		"id" : 341,
		"station_name" : "871550",
		"name" : "Fontana",
		"administrative_region1" : "Chaco",
		"administrative_region2" : "N/A",
		"country_code" : "AR",
		"longitude" : -59.0239,
		"latitude" : -27.4181
	},
	{
		"id" : 342,
		"station_name" : "718895",
		"name" : "Kelowna",
		"administrative_region1" : "British Columbia",
		"administrative_region2" : "N/A",
		"country_code" : "CA",
		"longitude" : -119.486,
		"latitude" : 49.8831
	},
	{
		"id" : 343,
		"station_name" : "474880",
		"name" : "Hakodate",
		"administrative_region1" : "Hokkaido",
		"administrative_region2" : "N/A",
		"country_code" : "JP",
		"longitude" : 140.737,
		"latitude" : 41.7758
	},
	{
		"id" : 344,
		"station_name" : "70100",
		"name" : "Saint-Pol-sur-Mer",
		"administrative_region1" : "Nord-Pas-de-Calais",
		"administrative_region2" : "Departement du Nord",
		"country_code" : "FR",
		"longitude" : 2.33983,
		"latitude" : 51.0312
	},
	{
		"id" : 345,
		"station_name" : "122000",
		"name" : "Swinoujscie",
		"administrative_region1" : "West Pomeranian Voivodeship",
		"administrative_region2" : "Swinoujscie",
		"country_code" : "PL",
		"longitude" : 14.2471,
		"latitude" : 53.9105
	},
	{
		"id" : 346,
		"station_name" : "404480",
		"name" : "Sharjah",
		"administrative_region1" : "Ash Shariqah",
		"administrative_region2" : "N/A",
		"country_code" : "AE",
		"longitude" : 55.4121,
		"latitude" : 25.3374
	},
	{
		"id" : 347,
		"station_name" : "718890",
		"name" : "Penticton",
		"administrative_region1" : "British Columbia",
		"administrative_region2" : "N/A",
		"country_code" : "CA",
		"longitude" : -119.586,
		"latitude" : 49.4806
	},
	{
		"id" : 348,
		"station_name" : "104530",
		"name" : "Braunlage",
		"administrative_region1" : "Lower Saxony",
		"administrative_region2" : "N/A",
		"country_code" : "DE",
		"longitude" : 10.6109,
		"latitude" : 51.7265
	},
	{
		"id" : 349,
		"station_name" : "104880",
		"name" : "Albertstadt",
		"administrative_region1" : "Saxony",
		"administrative_region2" : "N/A",
		"country_code" : "DE",
		"longitude" : 13.7667,
		"latitude" : 51.0833
	},
	{
		"id" : 350,
		"station_name" : "295530",
		"name" : "Bogotol",
		"administrative_region1" : "Krasnoyarskiy",
		"administrative_region2" : "N/A",
		"country_code" : "RU",
		"longitude" : 89.5342,
		"latitude" : 56.2078
	},
	{
		"id" : 351,
		"station_name" : "521120",
		"name" : "Yiwu",
		"administrative_region1" : "Xinjiang Uygur Zizhiqu",
		"administrative_region2" : "N/A",
		"country_code" : "CN",
		"longitude" : 94.6943,
		"latitude" : 43.2492
	},
	{
		"id" : 352,
		"station_name" : "313000",
		"name" : "Zeya",
		"administrative_region1" : "Amur",
		"administrative_region2" : "N/A",
		"country_code" : "RU",
		"longitude" : 127.257,
		"latitude" : 53.736
	},
	{
		"id" : 353,
		"station_name" : "282400",
		"name" : "Nikolo-Pavlovskoye",
		"administrative_region1" : "Sverdlovsk",
		"administrative_region2" : "N/A",
		"country_code" : "RU",
		"longitude" : 60.0578,
		"latitude" : 57.7831
	},
	{
		"id" : 354,
		"station_name" : "156150",
		"name" : "Samokov",
		"administrative_region1" : "Sofiya",
		"administrative_region2" : "Obshtina Samokov",
		"country_code" : "BG",
		"longitude" : 23.5528,
		"latitude" : 42.337
	},
	{
		"id" : 355,
		"station_name" : "719300",
		"name" : "Whitecourt",
		"administrative_region1" : "Alberta",
		"administrative_region2" : "N/A",
		"country_code" : "CA",
		"longitude" : -115.685,
		"latitude" : 54.1502
	},
	{
		"id" : 356,
		"station_name" : "719320",
		"name" : "Fort McMurray",
		"administrative_region1" : "Alberta",
		"administrative_region2" : "N/A",
		"country_code" : "CA",
		"longitude" : -111.381,
		"latitude" : 56.7268
	},
	{
		"id" : 357,
		"station_name" : "590230",
		"name" : "Si'en",
		"administrative_region1" : "Guangxi Zhuangzu Zizhiqu",
		"administrative_region2" : "N/A",
		"country_code" : "CN",
		"longitude" : 108.272,
		"latitude" : 24.842
	},
	{
		"id" : 358,
		"station_name" : "404980",
		"name" : "Qal`at Bishah",
		"administrative_region1" : "Mintaqat `Asir",
		"administrative_region2" : "N/A",
		"country_code" : "SA",
		"longitude" : 42.6052,
		"latitude" : 20.0005
	},
	{
		"id" : 359,
		"station_name" : "156140",
		"name" : "Sofia",
		"administrative_region1" : "Sofia-Capital",
		"administrative_region2" : "Stolichna Obshtina",
		"country_code" : "BG",
		"longitude" : 23.3242,
		"latitude" : 42.6975
	},
	{
		"id" : 360,
		"station_name" : "156130",
		"name" : "Sofia",
		"administrative_region1" : "Sofia-Capital",
		"administrative_region2" : "Stolichna Obshtina",
		"country_code" : "BG",
		"longitude" : 23.3242,
		"latitude" : 42.6975
	},
	{
		"id" : 361,
		"station_name" : "226020",
		"name" : "Kostomuksha",
		"administrative_region1" : "Republic of Karelia",
		"administrative_region2" : "N/A",
		"country_code" : "RU",
		"longitude" : 30.5767,
		"latitude" : 64.571
	},
	{
		"id" : 362,
		"station_name" : "719340",
		"name" : "Fort Smith",
		"administrative_region1" : "Northwest Territories",
		"administrative_region2" : "N/A",
		"country_code" : "CA",
		"longitude" : -111.885,
		"latitude" : 60.0003
	},
	{
		"id" : 363,
		"station_name" : "765480",
		"name" : "Anahuac",
		"administrative_region1" : "Veracruz",
		"administrative_region2" : "N/A",
		"country_code" : "MX",
		"longitude" : -97.8551,
		"latitude" : 22.2027
	},
	{
		"id" : 364,
		"station_name" : "719330",
		"name" : "Fort Smith",
		"administrative_region1" : "Northwest Territories",
		"administrative_region2" : "N/A",
		"country_code" : "CA",
		"longitude" : -111.885,
		"latitude" : 60.0003
	},
	{
		"id" : 365,
		"station_name" : "474830",
		"name" : "Shibetsu",
		"administrative_region1" : "Hokkaido",
		"administrative_region2" : "N/A",
		"country_code" : "JP",
		"longitude" : 145.132,
		"latitude" : 43.659
	},
	{
		"id" : 366,
		"station_name" : "104860",
		"name" : "Radebeul",
		"administrative_region1" : "Saxony",
		"administrative_region2" : "N/A",
		"country_code" : "DE",
		"longitude" : 13.6605,
		"latitude" : 51.1065
	},
	{
		"id" : 367,
		"station_name" : "607600",
		"name" : "Tozeur",
		"administrative_region1" : "Tawzar",
		"administrative_region2" : "N/A",
		"country_code" : "TN",
		"longitude" : 8.13352,
		"latitude" : 33.9197
	},
	{
		"id" : 368,
		"station_name" : "260940",
		"name" : "Tikhvin",
		"administrative_region1" : "Leningrad",
		"administrative_region2" : "N/A",
		"country_code" : "RU",
		"longitude" : 33.5294,
		"latitude" : 59.6451
	},
	{
		"id" : 369,
		"station_name" : "265180",
		"name" : "Silale",
		"administrative_region1" : "",
		"administrative_region2" : "N/A",
		"country_code" : "LT",
		"longitude" : 22.1814,
		"latitude" : 55.4906
	},
	{
		"id" : 370,
		"station_name" : "404950",
		"name" : "As Sulayyil",
		"administrative_region1" : "Ar Riyad",
		"administrative_region2" : "N/A",
		"country_code" : "SA",
		"longitude" : 45.5779,
		"latitude" : 20.4607
	},
	{
		"id" : 371,
		"station_name" : "765494",
		"name" : "Ciudad Madero",
		"administrative_region1" : "Tamaulipas",
		"administrative_region2" : "N/A",
		"country_code" : "MX",
		"longitude" : -97.8362,
		"latitude" : 22.2723
	},
	{
		"id" : 372,
		"station_name" : "765493",
		"name" : "Tampico",
		"administrative_region1" : "Tamaulipas",
		"administrative_region2" : "N/A",
		"country_code" : "MX",
		"longitude" : -97.8677,
		"latitude" : 22.2782
	},
	{
		"id" : 373,
		"station_name" : "295510",
		"name" : "Mariinsk",
		"administrative_region1" : "Kemerovo",
		"administrative_region2" : "N/A",
		"country_code" : "RU",
		"longitude" : 87.7472,
		"latitude" : 56.2139
	},
	{
		"id" : 374,
		"station_name" : "765491",
		"name" : "Ciudad Madero",
		"administrative_region1" : "Tamaulipas",
		"administrative_region2" : "N/A",
		"country_code" : "MX",
		"longitude" : -97.8362,
		"latitude" : 22.2723
	},
	{
		"id" : 375,
		"station_name" : "529080",
		"name" : "Wutumeiren",
		"administrative_region1" : "Qinghai Sheng",
		"administrative_region2" : "N/A",
		"country_code" : "CN",
		"longitude" : 93.1611,
		"latitude" : 36.9093
	},
	{
		"id" : 376,
		"station_name" : "719350",
		"name" : "Hay River",
		"administrative_region1" : "Northwest Territories",
		"administrative_region2" : "N/A",
		"country_code" : "CA",
		"longitude" : -115.8,
		"latitude" : 60.8156
	},
	{
		"id" : 377,
		"station_name" : "474790",
		"name" : "Sapporo",
		"administrative_region1" : "Hokkaido",
		"administrative_region2" : "N/A",
		"country_code" : "JP",
		"longitude" : 141.347,
		"latitude" : 43.0642
	},
	{
		"id" : 378,
		"station_name" : "156090",
		"name" : "Sliven",
		"administrative_region1" : "Sliven",
		"administrative_region2" : "Obshtina Sliven",
		"country_code" : "BG",
		"longitude" : 26.3292,
		"latitude" : 42.6858
	},
	{
		"id" : 379,
		"station_name" : "719240",
		"name" : "Gjoa Haven",
		"administrative_region1" : "Nunavut",
		"administrative_region2" : "N/A",
		"country_code" : "CA",
		"longitude" : -95.8784,
		"latitude" : 68.626
	},
	{
		"id" : 380,
		"station_name" : "156091",
		"name" : "Sofia",
		"administrative_region1" : "Sofia-Capital",
		"administrative_region2" : "Stolichna Obshtina",
		"country_code" : "BG",
		"longitude" : 23.3242,
		"latitude" : 42.6975
	},
	{
		"id" : 381,
		"station_name" : "505640",
		"name" : "Sunwu",
		"administrative_region1" : "Heilongjiang Sheng",
		"administrative_region2" : "N/A",
		"country_code" : "CN",
		"longitude" : 127.315,
		"latitude" : 49.4175
	},
	{
		"id" : 382,
		"station_name" : "607500",
		"name" : "Sfax",
		"administrative_region1" : "Safaqis",
		"administrative_region2" : "N/A",
		"country_code" : "TN",
		"longitude" : 10.7603,
		"latitude" : 34.7406
	},
	{
		"id" : 383,
		"station_name" : "703810",
		"name" : "Juneau",
		"administrative_region1" : "Alaska",
		"administrative_region2" : "Juneau City and Borough",
		"country_code" : "US",
		"longitude" : -134.42,
		"latitude" : 58.3019
	},
	{
		"id" : 384,
		"station_name" : "35580",
		"name" : "Riseley",
		"administrative_region1" : "England",
		"administrative_region2" : "Bedford",
		"country_code" : "GB",
		"longitude" : -0.47928,
		"latitude" : 52.2521
	},
	{
		"id" : 385,
		"station_name" : "684060",
		"name" : "Oranjemund",
		"administrative_region1" : "Karas",
		"administrative_region2" : "N/A",
		"country_code" : "NA",
		"longitude" : 16.4333,
		"latitude" : -28.55
	},
	{
		"id" : 386,
		"station_name" : "948420",
		"name" : "Apollo Bay",
		"administrative_region1" : "Victoria",
		"administrative_region2" : "Colac-Otway",
		"country_code" : "AU",
		"longitude" : 143.672,
		"latitude" : -38.7594
	},
	{
		"id" : 387,
		"station_name" : "719260",
		"name" : "Rankin Inlet",
		"administrative_region1" : "Nunavut",
		"administrative_region2" : "N/A",
		"country_code" : "CA",
		"longitude" : -92.0832,
		"latitude" : 62.8173
	},
	{
		"id" : 388,
		"station_name" : "122150",
		"name" : "Szczecinek",
		"administrative_region1" : "West Pomeranian Voivodeship",
		"administrative_region2" : "Powiat szczecinecki",
		"country_code" : "PL",
		"longitude" : 16.6994,
		"latitude" : 53.7079
	},
	{
		"id" : 389,
		"station_name" : "703835",
		"name" : "Dutch Harbor",
		"administrative_region1" : "Alaska",
		"administrative_region2" : "Aleutians West Census Area",
		"country_code" : "US",
		"longitude" : -166.542,
		"latitude" : 53.8898
	},
	{
		"id" : 390,
		"station_name" : "474810",
		"name" : "Bihoro",
		"administrative_region1" : "Hokkaido",
		"administrative_region2" : "N/A",
		"country_code" : "JP",
		"longitude" : 144.104,
		"latitude" : 43.8228
	},
	{
		"id" : 391,
		"station_name" : "948430",
		"name" : "Swan Hill",
		"administrative_region1" : "Victoria",
		"administrative_region2" : "Swan Hill",
		"country_code" : "AU",
		"longitude" : 143.554,
		"latitude" : -35.3378
	},
	{
		"id" : 392,
		"station_name" : "719250",
		"name" : "Gjoa Haven",
		"administrative_region1" : "Nunavut",
		"administrative_region2" : "N/A",
		"country_code" : "CA",
		"longitude" : -95.8784,
		"latitude" : 68.626
	},
	{
		"id" : 393,
		"station_name" : "474760",
		"name" : "Asahikawa",
		"administrative_region1" : "Hokkaido",
		"administrative_region2" : "Asahikawa-shi",
		"country_code" : "JP",
		"longitude" : 142.365,
		"latitude" : 43.7706
	},
	{
		"id" : 394,
		"station_name" : "265090",
		"name" : "Klaipeda",
		"administrative_region1" : "Klaipedos apskritis",
		"administrative_region2" : "Klaipeda",
		"country_code" : "LT",
		"longitude" : 21.1175,
		"latitude" : 55.7172
	},
	{
		"id" : 395,
		"station_name" : "156050",
		"name" : "Dragoman",
		"administrative_region1" : "Sofiya",
		"administrative_region2" : "Obshtina Dragoman",
		"country_code" : "BG",
		"longitude" : 22.9317,
		"latitude" : 42.9189
	},
	{
		"id" : 396,
		"station_name" : "719265",
		"name" : "Rankin Inlet",
		"administrative_region1" : "Nunavut",
		"administrative_region2" : "N/A",
		"country_code" : "CA",
		"longitude" : -92.0832,
		"latitude" : 62.8173
	},
	{
		"id" : 397,
		"station_name" : "719264",
		"name" : "Rankin Inlet",
		"administrative_region1" : "Nunavut",
		"administrative_region2" : "N/A",
		"country_code" : "CA",
		"longitude" : -92.0832,
		"latitude" : 62.8173
	},
	{
		"id" : 398,
		"station_name" : "104920",
		"name" : "Cottbus",
		"administrative_region1" : "Brandenburg",
		"administrative_region2" : "N/A",
		"country_code" : "DE",
		"longitude" : 14.3289,
		"latitude" : 51.7577
	},
	{
		"id" : 399,
		"station_name" : "104900",
		"name" : "Doberlug-Kirchhain",
		"administrative_region1" : "Brandenburg",
		"administrative_region2" : "N/A",
		"country_code" : "DE",
		"longitude" : 13.5623,
		"latitude" : 51.6258
	},
	{
		"id" : 400,
		"station_name" : "703870",
		"name" : "Wrangell",
		"administrative_region1" : "Alaska",
		"administrative_region2" : "City and Borough of Wrangell",
		"country_code" : "US",
		"longitude" : -132.377,
		"latitude" : 56.4708
	},
	{
		"id" : 401,
		"station_name" : "765560",
		"name" : "Tepic",
		"administrative_region1" : "Nayarit",
		"administrative_region2" : "N/A",
		"country_code" : "MX",
		"longitude" : -104.896,
		"latitude" : 21.5095
	},
	{
		"id" : 402,
		"station_name" : "995110",
		"name" : "Barrow in Furness",
		"administrative_region1" : "England",
		"administrative_region2" : "Cumbria",
		"country_code" : "GB",
		"longitude" : -3.22758,
		"latitude" : 54.1109
	},
	{
		"id" : 403,
		"station_name" : "932910",
		"name" : "Gisborne",
		"administrative_region1" : "Gisborne",
		"administrative_region2" : "Gisborne District",
		"country_code" : "NZ",
		"longitude" : 178.004,
		"latitude" : -38.6533
	},
	{
		"id" : 404,
		"station_name" : "703860",
		"name" : "Petersburg",
		"administrative_region1" : "Alaska",
		"administrative_region2" : "Wrangell-Petersburg Census Area",
		"country_code" : "US",
		"longitude" : -132.956,
		"latitude" : 56.8125
	},
	{
		"id" : 405,
		"station_name" : "719280",
		"name" : "Rocky Mountain House",
		"administrative_region1" : "Alberta",
		"administrative_region2" : "N/A",
		"country_code" : "CA",
		"longitude" : -114.919,
		"latitude" : 52.3668
	},
	{
		"id" : 406,
		"station_name" : "122120",
		"name" : "Swidwin",
		"administrative_region1" : "West Pomeranian Voivodeship",
		"administrative_region2" : "Powiat swidwinski",
		"country_code" : "PL",
		"longitude" : 15.7767,
		"latitude" : 53.7746
	},
	{
		"id" : 407,
		"station_name" : "521180",
		"name" : "Yiwu",
		"administrative_region1" : "Xinjiang Uygur Zizhiqu",
		"administrative_region2" : "N/A",
		"country_code" : "CN",
		"longitude" : 94.6943,
		"latitude" : 43.2492
	},
	{
		"id" : 408,
		"station_name" : "933080",
		"name" : "Waitara",
		"administrative_region1" : "Taranaki",
		"administrative_region2" : "New Plymouth District",
		"country_code" : "NZ",
		"longitude" : 174.238,
		"latitude" : -39.0016
	},
	{
		"id" : 409,
		"station_name" : "719170",
		"name" : "Gjoa Haven",
		"administrative_region1" : "Nunavut",
		"administrative_region2" : "N/A",
		"country_code" : "CA",
		"longitude" : -95.8784,
		"latitude" : 68.626
	},
	{
		"id" : 410,
		"station_name" : "104760",
		"name" : "Holzdorf",
		"administrative_region1" : "Saxony-Anhalt",
		"administrative_region2" : "N/A",
		"country_code" : "DE",
		"longitude" : 13.1276,
		"latitude" : 51.7787
	},
	{
		"id" : 411,
		"station_name" : "607690",
		"name" : "Houmt Souk",
		"administrative_region1" : "Madanin",
		"administrative_region2" : "N/A",
		"country_code" : "TN",
		"longitude" : 10.8574,
		"latitude" : 33.8758
	},
	{
		"id" : 412,
		"station_name" : "333930",
		"name" : "Rudne",
		"administrative_region1" : "Lviv",
		"administrative_region2" : "N/A",
		"country_code" : "UA",
		"longitude" : 23.9,
		"latitude" : 49.8333
	},
	{
		"id" : 413,
		"station_name" : "333931",
		"name" : "Molodiya",
		"administrative_region1" : "Chernivtsi",
		"administrative_region2" : "N/A",
		"country_code" : "UA",
		"longitude" : 26.0214,
		"latitude" : 48.2233
	},
	{
		"id" : 414,
		"station_name" : "703880",
		"name" : "Craig",
		"administrative_region1" : "Alaska",
		"administrative_region2" : "Annette Island Reserve",
		"country_code" : "US",
		"longitude" : -133.148,
		"latitude" : 55.4764
	},
	{
		"id" : 415,
		"station_name" : "581440",
		"name" : "Huai'an",
		"administrative_region1" : "Jiangsu Sheng",
		"administrative_region2" : "N/A",
		"country_code" : "CN",
		"longitude" : 119.019,
		"latitude" : 33.5886
	},
	{
		"id" : 416,
		"station_name" : "156000",
		"name" : "Bukhovo",
		"administrative_region1" : "Sofia-Capital",
		"administrative_region2" : "Stolichna Obshtina",
		"country_code" : "BG",
		"longitude" : 23.5667,
		"latitude" : 42.7667
	},
	{
		"id" : 417,
		"station_name" : "295670",
		"name" : "Nazarovo",
		"administrative_region1" : "Krasnoyarskiy",
		"administrative_region2" : "N/A",
		"country_code" : "RU",
		"longitude" : 90.4011,
		"latitude" : 56.0104
	},
	{
		"id" : 418,
		"station_name" : "684240",
		"name" : "Upington",
		"administrative_region1" : "Northern Cape",
		"administrative_region2" : "Siyanda District Municipality",
		"country_code" : "ZA",
		"longitude" : 21.2561,
		"latitude" : -28.4478
	},
	{
		"id" : 419,
		"station_name" : "282550",
		"name" : "Turinsk",
		"administrative_region1" : "Sverdlovsk",
		"administrative_region2" : "N/A",
		"country_code" : "RU",
		"longitude" : 63.696,
		"latitude" : 58.0457
	},
	{
		"id" : 420,
		"station_name" : "703894",
		"name" : "Craig",
		"administrative_region1" : "Alaska",
		"administrative_region2" : "Annette Island Reserve",
		"country_code" : "US",
		"longitude" : -133.148,
		"latitude" : 55.4764
	},
	{
		"id" : 421,
		"station_name" : "104750",
		"name" : "Harsum",
		"administrative_region1" : "Lower Saxony",
		"administrative_region2" : "N/A",
		"country_code" : "DE",
		"longitude" : 9.96486,
		"latitude" : 52.2104
	},
	{
		"id" : 422,
		"station_name" : "122350",
		"name" : "Chojnice",
		"administrative_region1" : "Pomeranian Voivodeship",
		"administrative_region2" : "Powiat chojnicki",
		"country_code" : "PL",
		"longitude" : 17.557,
		"latitude" : 53.6955
	},
	{
		"id" : 423,
		"station_name" : "995270",
		"name" : "Shetland",
		"administrative_region1" : "Scotland",
		"administrative_region2" : "Shetland Islands",
		"country_code" : "GB",
		"longitude" : -1.14899,
		"latitude" : 60.1546
	},
	{
		"id" : 424,
		"station_name" : "474740",
		"name" : "Mombetsu",
		"administrative_region1" : "Hokkaido",
		"administrative_region2" : "N/A",
		"country_code" : "JP",
		"longitude" : 143.352,
		"latitude" : 44.3525
	},
	{
		"id" : 425,
		"station_name" : "175150",
		"name" : "Lefkonoiko",
		"administrative_region1" : "Ammochostos",
		"administrative_region2" : "N/A",
		"country_code" : "CY",
		"longitude" : 33.7319,
		"latitude" : 35.2598
	},
	{
		"id" : 426,
		"station_name" : "104740",
		"name" : "Wittenburg",
		"administrative_region1" : "Saxony-Anhalt",
		"administrative_region2" : "N/A",
		"country_code" : "DE",
		"longitude" : 12.6284,
		"latitude" : 51.8663
	},
	{
		"id" : 427,
		"station_name" : "607700",
		"name" : "Medenine",
		"administrative_region1" : "Madanin",
		"administrative_region2" : "N/A",
		"country_code" : "TN",
		"longitude" : 10.5055,
		"latitude" : 33.3549
	},
	{
		"id" : 428,
		"station_name" : "719200",
		"name" : "La Ronge",
		"administrative_region1" : "Saskatchewan",
		"administrative_region2" : "N/A",
		"country_code" : "CA",
		"longitude" : -105.284,
		"latitude" : 55.1001
	},
	{
		"id" : 429,
		"station_name" : "104730",
		"name" : "Harsum",
		"administrative_region1" : "Lower Saxony",
		"administrative_region2" : "N/A",
		"country_code" : "DE",
		"longitude" : 9.96486,
		"latitude" : 52.2104
	},
	{
		"id" : 430,
		"station_name" : "295620",
		"name" : "Kedrovyy",
		"administrative_region1" : "Krasnoyarskiy",
		"administrative_region2" : "N/A",
		"country_code" : "RU",
		"longitude" : 91.5376,
		"latitude" : 56.2823
	},
	{
		"id" : 431,
		"station_name" : "948280",
		"name" : "Portland",
		"administrative_region1" : "Victoria",
		"administrative_region2" : "Glenelg",
		"country_code" : "AU",
		"longitude" : 141.603,
		"latitude" : -38.3462
	},